{
"type": "FeatureCollection",
"name": "sglakes",
"crs": { "type": "name", "properties": { "name": "urn:ogc:def:crs:OGC:1.3:CRS84" } },
"features": [
{ "type": "Feature", "properties": { "xID": 380, "Region": "Greenland", "Tally": 1, "LakeNum": "Greenland1", "Name": "Kangerluarsuup Sermia", "Lat": 78.01, "Lon": -68.39 }, "geometry": { "type": "Point", "coordinates": [ -68.39, 78.01 ] } },
{ "type": "Feature", "properties": { "xID": 381, "Region": "Greenland", "Tally": 2, "LakeNum": "Greenland2", "Name": "Kangerluarsuup Sermia", "Lat": 77.97, "Lon": -68.44 }, "geometry": { "type": "Point", "coordinates": [ -68.44, 77.97 ] } },
{ "type": "Feature", "properties": { "xID": 382, "Region": "Greenland", "Tally": 3, "LakeNum": "Greenland3", "Name": "Flade Isblink ice cap", "Lat": 81.16, "Lon": -16.58 }, "geometry": { "type": "Point", "coordinates": [ -16.58, 81.16 ] } },
{ "type": "Feature", "properties": { "xID": 383, "Region": "Greenland", "Tally": 4, "LakeNum": "Greenland4", "Name": "Inuppaat Quuat", "Lat": 67.61, "Lon": -48.71 }, "geometry": { "type": "Point", "coordinates": [ -48.71, 67.61 ] } },
{ "type": "Feature", "properties": { "xID": 384, "Region": "Greenland", "Tally": 5, "LakeNum": "Greenland5", "Name": "Sioqqap Sermia", "Lat": 63.54, "Lon": -48.45 }, "geometry": { "type": "Point", "coordinates": [ -48.45, 63.54 ] } },
{ "type": "Feature", "properties": { "xID": 385, "Region": "Greenland", "Tally": 6, "LakeNum": "Greenland6", "Name": "Sioqqap Sermia", "Lat": 63.26, "Lon": -48.21 }, "geometry": { "type": "Point", "coordinates": [ -48.21, 63.26 ] } },
{ "type": "Feature", "properties": { "xID": 386, "Region": "Greenland", "Tally": 7, "LakeNum": "Greenland7", "Name": "Camp Century (borehole)", "Lat": 77.21, "Lon": -60.35 }, "geometry": { "type": "Point", "coordinates": [ -60.35, 77.21 ] } },
{ "type": "Feature", "properties": { "xID": 387, "Region": "Greenland", "Tally": 8, "LakeNum": "Greenland8", "Name": "Camp Century (borehole)", "Lat": 77.21, "Lon": -60.16 }, "geometry": { "type": "Point", "coordinates": [ -60.16, 77.21 ] } },
{ "type": "Feature", "properties": { "xID": 388, "Region": "Greenland", "Tally": 9, "LakeNum": "Greenland9", "Name": "Hiawatha Gletsjer", "Lat": 78.77, "Lon": -64.23 }, "geometry": { "type": "Point", "coordinates": [ -64.23, 78.77 ] } },
{ "type": "Feature", "properties": { "xID": 389, "Region": "Greenland", "Tally": 10, "LakeNum": "Greenland10", "Name": "Hiawatha Gletsjer", "Lat": 78.39, "Lon": -59.88 }, "geometry": { "type": "Point", "coordinates": [ -59.88, 78.39 ] } },
{ "type": "Feature", "properties": { "xID": 390, "Region": "Greenland", "Tally": 11, "LakeNum": "Greenland11", "Name": "Qeqertaarsuusarsuup Sermia", "Lat": 77.99, "Lon": -64.37 }, "geometry": { "type": "Point", "coordinates": [ -64.37, 77.99 ] } },
{ "type": "Feature", "properties": { "xID": 391, "Region": "Greenland", "Tally": 12, "LakeNum": "Greenland12", "Name": "Qeqertaarsuusarsuup Sermia", "Lat": 77.95, "Lon": -64.43 }, "geometry": { "type": "Point", "coordinates": [ -64.43, 77.95 ] } },
{ "type": "Feature", "properties": { "xID": 392, "Region": "Greenland", "Tally": 13, "LakeNum": "Greenland13", "Name": "Qeqertaarsuusarsuup Sermia", "Lat": 78.0, "Lon": -64.88 }, "geometry": { "type": "Point", "coordinates": [ -64.88, 78.0 ] } },
{ "type": "Feature", "properties": { "xID": 393, "Region": "Greenland", "Tally": 14, "LakeNum": "Greenland14", "Name": "Qeqertaarsuusarsuup Sermia", "Lat": 78.16, "Lon": -64.52 }, "geometry": { "type": "Point", "coordinates": [ -64.52, 78.16 ] } },
{ "type": "Feature", "properties": { "xID": 394, "Region": "Greenland", "Tally": 15, "LakeNum": "Greenland15", "Name": "Qeqertaarsuusarsuup Sermia", "Lat": 77.74, "Lon": -63.33 }, "geometry": { "type": "Point", "coordinates": [ -63.33, 77.74 ] } },
{ "type": "Feature", "properties": { "xID": 395, "Region": "Greenland", "Tally": 16, "LakeNum": "Greenland16", "Name": "Sermersuaq", "Lat": 78.76, "Lon": -60.77 }, "geometry": { "type": "Point", "coordinates": [ -60.77, 78.76 ] } },
{ "type": "Feature", "properties": { "xID": 396, "Region": "Greenland", "Tally": 17, "LakeNum": "Greenland17", "Name": "Sermersuaq", "Lat": 78.74, "Lon": -60.81 }, "geometry": { "type": "Point", "coordinates": [ -60.81, 78.74 ] } },
{ "type": "Feature", "properties": { "xID": 397, "Region": "Greenland", "Tally": 18, "LakeNum": "Greenland18", "Name": "Sermersuaq (Humboldt)", "Lat": 78.83, "Lon": -59.02 }, "geometry": { "type": "Point", "coordinates": [ -59.02, 78.83 ] } },
{ "type": "Feature", "properties": { "xID": 398, "Region": "Greenland", "Tally": 19, "LakeNum": "Greenland19", "Name": "Sermersuaq (Humboldt)", "Lat": 78.82, "Lon": -59.05 }, "geometry": { "type": "Point", "coordinates": [ -59.05, 78.82 ] } },
{ "type": "Feature", "properties": { "xID": 399, "Region": "Greenland", "Tally": 20, "LakeNum": "Greenland20", "Name": "Sermiarsupaluk", "Lat": 77.08, "Lon": -65.13 }, "geometry": { "type": "Point", "coordinates": [ -65.13, 77.08 ] } },
{ "type": "Feature", "properties": { "xID": 400, "Region": "Greenland", "Tally": 21, "LakeNum": "Greenland21", "Name": "Petermann Gletsjer", "Lat": 80.69, "Lon": -55.97 }, "geometry": { "type": "Point", "coordinates": [ -55.97, 80.69 ] } },
{ "type": "Feature", "properties": { "xID": 401, "Region": "Greenland", "Tally": 22, "LakeNum": "Greenland22", "Name": "Ryder Gletsjer", "Lat": 80.05, "Lon": -45.22 }, "geometry": { "type": "Point", "coordinates": [ -45.22, 80.05 ] } },
{ "type": "Feature", "properties": { "xID": 402, "Region": "Greenland", "Tally": 23, "LakeNum": "Greenland23", "Name": "Ryder Gletsjer", "Lat": 80.07, "Lon": -44.99 }, "geometry": { "type": "Point", "coordinates": [ -44.99, 80.07 ] } },
{ "type": "Feature", "properties": { "xID": 403, "Region": "Greenland", "Tally": 24, "LakeNum": "Greenland24", "Name": "Ryder Gletsjer", "Lat": 80.65, "Lon": -47.95 }, "geometry": { "type": "Point", "coordinates": [ -47.95, 80.65 ] } },
{ "type": "Feature", "properties": { "xID": 404, "Region": "Greenland", "Tally": 25, "LakeNum": "Greenland25", "Name": "Ryder Gletsjer", "Lat": 80.6, "Lon": -47.88 }, "geometry": { "type": "Point", "coordinates": [ -47.88, 80.6 ] } },
{ "type": "Feature", "properties": { "xID": 405, "Region": "Greenland", "Tally": 26, "LakeNum": "Greenland26", "Name": "Ryder Gletsjer", "Lat": 80.35, "Lon": -44.23 }, "geometry": { "type": "Point", "coordinates": [ -44.23, 80.35 ] } },
{ "type": "Feature", "properties": { "xID": 406, "Region": "Greenland", "Tally": 27, "LakeNum": "Greenland27", "Name": "Ryder Gletsjer", "Lat": 80.33, "Lon": -44.36 }, "geometry": { "type": "Point", "coordinates": [ -44.36, 80.33 ] } },
{ "type": "Feature", "properties": { "xID": 407, "Region": "Greenland", "Tally": 28, "LakeNum": "Greenland28", "Name": "C.H. Ostenfeld Gletsjer", "Lat": 80.59, "Lon": -41.95 }, "geometry": { "type": "Point", "coordinates": [ -41.95, 80.59 ] } },
{ "type": "Feature", "properties": { "xID": 408, "Region": "Greenland", "Tally": 29, "LakeNum": "Greenland29", "Name": "C.H. Ostenfeld Gletsjer", "Lat": 81.0, "Lon": -40.39 }, "geometry": { "type": "Point", "coordinates": [ -40.39, 81.0 ] } },
{ "type": "Feature", "properties": { "xID": 409, "Region": "Greenland", "Tally": 30, "LakeNum": "Greenland30", "Name": "C.H. Ostenfeld Gletsjer", "Lat": 80.8, "Lon": -43.06 }, "geometry": { "type": "Point", "coordinates": [ -43.06, 80.8 ] } },
{ "type": "Feature", "properties": { "xID": 410, "Region": "Greenland", "Tally": 31, "LakeNum": "Greenland31", "Name": "C.H. Ostenfeld Gletsjer", "Lat": 80.72, "Lon": -43.98 }, "geometry": { "type": "Point", "coordinates": [ -43.98, 80.72 ] } },
{ "type": "Feature", "properties": { "xID": 411, "Region": "Greenland", "Tally": 32, "LakeNum": "Greenland32", "Name": "Hobbs Gletsjer", "Lat": 81.58, "Lon": -38.72 }, "geometry": { "type": "Point", "coordinates": [ -38.72, 81.58 ] } },
{ "type": "Feature", "properties": { "xID": 412, "Region": "Greenland", "Tally": 33, "LakeNum": "Greenland33", "Name": "Hobbs Gletsjer", "Lat": 81.57, "Lon": -38.65 }, "geometry": { "type": "Point", "coordinates": [ -38.65, 81.57 ] } },
{ "type": "Feature", "properties": { "xID": 413, "Region": "Greenland", "Tally": 34, "LakeNum": "Greenland34", "Name": "Hobbs Gletsjer", "Lat": 81.57, "Lon": -38.58 }, "geometry": { "type": "Point", "coordinates": [ -38.58, 81.57 ] } },
{ "type": "Feature", "properties": { "xID": 414, "Region": "Greenland", "Tally": 35, "LakeNum": "Greenland35", "Name": "Marie Sophie Gletsjer", "Lat": 81.39, "Lon": -38.3 }, "geometry": { "type": "Point", "coordinates": [ -38.3, 81.39 ] } },
{ "type": "Feature", "properties": { "xID": 415, "Region": "Greenland", "Tally": 36, "LakeNum": "Greenland36", "Name": "Marie Sophie Gletsjer", "Lat": 81.43, "Lon": -38.81 }, "geometry": { "type": "Point", "coordinates": [ -38.81, 81.43 ] } },
{ "type": "Feature", "properties": { "xID": 416, "Region": "Greenland", "Tally": 37, "LakeNum": "Greenland37", "Name": "Hagen Br¥", "Lat": 80.66, "Lon": -31.07 }, "geometry": { "type": "Point", "coordinates": [ -31.07, 80.66 ] } },
{ "type": "Feature", "properties": { "xID": 417, "Region": "Greenland", "Tally": 38, "LakeNum": "Greenland38", "Name": "Spaltegletsjer\/ NEGIS", "Lat": 80.2, "Lon": -28.46 }, "geometry": { "type": "Point", "coordinates": [ -28.46, 80.2 ] } },
{ "type": "Feature", "properties": { "xID": 418, "Region": "Greenland", "Tally": 39, "LakeNum": "Greenland39", "Name": "Spaltegletsjer\/ NEGIS", "Lat": 79.88, "Lon": -28.95 }, "geometry": { "type": "Point", "coordinates": [ -28.95, 79.88 ] } },
{ "type": "Feature", "properties": { "xID": 419, "Region": "Greenland", "Tally": 40, "LakeNum": "Greenland40", "Name": "Spaltegletsjer\/ NEGIS", "Lat": 80.03, "Lon": -29.33 }, "geometry": { "type": "Point", "coordinates": [ -29.33, 80.03 ] } },
{ "type": "Feature", "properties": { "xID": 420, "Region": "Greenland", "Tally": 41, "LakeNum": "Greenland41", "Name": "Spaltegletsjer\/ NEGIS", "Lat": 80.05, "Lon": -29.38 }, "geometry": { "type": "Point", "coordinates": [ -29.38, 80.05 ] } },
{ "type": "Feature", "properties": { "xID": 421, "Region": "Greenland", "Tally": 42, "LakeNum": "Greenland42", "Name": "Spaltegletsjer\/ NEGIS", "Lat": 80.07, "Lon": -29.43 }, "geometry": { "type": "Point", "coordinates": [ -29.43, 80.07 ] } },
{ "type": "Feature", "properties": { "xID": 422, "Region": "Greenland", "Tally": 43, "LakeNum": "Greenland43", "Name": "Kangerlussuaq Gletsjer", "Lat": 69.04, "Lon": -36.99 }, "geometry": { "type": "Point", "coordinates": [ -36.99, 69.04 ] } },
{ "type": "Feature", "properties": { "xID": 423, "Region": "Greenland", "Tally": 44, "LakeNum": "Greenland44", "Name": "Kangerlussuaq Gletsjer", "Lat": 69.73, "Lon": -34.65 }, "geometry": { "type": "Point", "coordinates": [ -34.65, 69.73 ] } },
{ "type": "Feature", "properties": { "xID": 424, "Region": "Greenland", "Tally": 45, "LakeNum": "Greenland45", "Name": "Kangerlussuaq Gletsjer", "Lat": 70.01, "Lon": -35.49 }, "geometry": { "type": "Point", "coordinates": [ -35.49, 70.01 ] } },
{ "type": "Feature", "properties": { "xID": 425, "Region": "Greenland", "Tally": 46, "LakeNum": "Greenland46", "Name": "Daugaard-Jensen Gletsjer", "Lat": 71.93, "Lon": -36.38 }, "geometry": { "type": "Point", "coordinates": [ -36.38, 71.93 ] } },
{ "type": "Feature", "properties": { "xID": 426, "Region": "Greenland", "Tally": 47, "LakeNum": "Greenland47", "Name": "Daugaard-Jensen Gletsjer", "Lat": 72.12, "Lon": -31.21 }, "geometry": { "type": "Point", "coordinates": [ -31.21, 72.12 ] } },
{ "type": "Feature", "properties": { "xID": 427, "Region": "Greenland", "Tally": 48, "LakeNum": "Greenland48", "Name": "Daugaard-Jensen Gletsjer", "Lat": 72.32, "Lon": -31.84 }, "geometry": { "type": "Point", "coordinates": [ -31.84, 72.32 ] } },
{ "type": "Feature", "properties": { "xID": 428, "Region": "Greenland", "Tally": 49, "LakeNum": "Greenland49", "Name": "Hamberg Gletsjer", "Lat": 72.83, "Lon": -36.17 }, "geometry": { "type": "Point", "coordinates": [ -36.17, 72.83 ] } },
{ "type": "Feature", "properties": { "xID": 429, "Region": "Greenland", "Tally": 50, "LakeNum": "Greenland50", "Name": "Hamberg Gletsjer", "Lat": 72.83, "Lon": -36.2 }, "geometry": { "type": "Point", "coordinates": [ -36.2, 72.83 ] } },
{ "type": "Feature", "properties": { "xID": 430, "Region": "Greenland", "Tally": 51, "LakeNum": "Greenland51", "Name": "Skrîbr¥", "Lat": 74.27, "Lon": -33.39 }, "geometry": { "type": "Point", "coordinates": [ -33.39, 74.27 ] } },
{ "type": "Feature", "properties": { "xID": 431, "Region": "Greenland", "Tally": 52, "LakeNum": "Greenland52", "Name": "Skrîbr¥", "Lat": 74.28, "Lon": -33.53 }, "geometry": { "type": "Point", "coordinates": [ -33.53, 74.28 ] } },
{ "type": "Feature", "properties": { "xID": 432, "Region": "Greenland", "Tally": 53, "LakeNum": "Greenland53", "Name": "Skrîbr¥", "Lat": 74.28, "Lon": -33.58 }, "geometry": { "type": "Point", "coordinates": [ -33.58, 74.28 ] } },
{ "type": "Feature", "properties": { "xID": 433, "Region": "Greenland", "Tally": 54, "LakeNum": "Greenland54", "Name": "Vestfjord Gletsjer", "Lat": 70.6, "Lon": -35.4 }, "geometry": { "type": "Point", "coordinates": [ -35.4, 70.6 ] } },
{ "type": "Feature", "properties": { "xID": 434, "Region": "Greenland", "Tally": 55, "LakeNum": "Greenland55", "Name": "Vestfjord Gletsjer", "Lat": 70.59, "Lon": -35.57 }, "geometry": { "type": "Point", "coordinates": [ -35.57, 70.59 ] } },
{ "type": "Feature", "properties": { "xID": 435, "Region": "Greenland", "Tally": 56, "LakeNum": "Greenland56", "Name": "Vestfjord Gletsjer", "Lat": 70.62, "Lon": -32.82 }, "geometry": { "type": "Point", "coordinates": [ -32.82, 70.62 ] } },
{ "type": "Feature", "properties": { "xID": 436, "Region": "Greenland", "Tally": 57, "LakeNum": "Greenland57", "Name": "Vestfjord Gletsjer", "Lat": 70.68, "Lon": -32.81 }, "geometry": { "type": "Point", "coordinates": [ -32.81, 70.68 ] } },
{ "type": "Feature", "properties": { "xID": 437, "Region": "Greenland", "Tally": 58, "LakeNum": "Greenland58", "Name": "Apuseeq", "Lat": 65.12, "Lon": -44.4 }, "geometry": { "type": "Point", "coordinates": [ -44.4, 65.12 ] } },
{ "type": "Feature", "properties": { "xID": 438, "Region": "Greenland", "Tally": 59, "LakeNum": "Greenland59", "Name": "Sermeq Kujalleq (Jakobshavn)", "Lat": 69.11, "Lon": -42.06 }, "geometry": { "type": "Point", "coordinates": [ -42.06, 69.11 ] } },
{ "type": "Feature", "properties": { "xID": 439, "Region": "Greenland", "Tally": 60, "LakeNum": "Greenland60", "Name": "Sermeq Kujalleq (Jakobshavn)", "Lat": 69.11, "Lon": -41.95 }, "geometry": { "type": "Point", "coordinates": [ -41.95, 69.11 ] } },
{ "type": "Feature", "properties": { "xID": 440, "Region": "Canada", "Tally": 1, "LakeNum": "Canada1", "Name": "Laurentide icesheet Fig3", "Lat": 53.42, "Lon": -116.82 }, "geometry": { "type": "Point", "coordinates": [ -116.82, 53.42 ] } },
{ "type": "Feature", "properties": { "xID": 441, "Region": "Iceland", "Tally": 1, "LakeNum": "Iceland1", "Name": "Grimsvotn west", "Lat": 64.48702, "Lon": -17.50583 }, "geometry": { "type": "Point", "coordinates": [ -17.50583, 64.48702 ] } },
{ "type": "Feature", "properties": { "xID": 442, "Region": "Iceland", "Tally": 2, "LakeNum": "Iceland2", "Name": "Grimsvotn east", "Lat": 64.48757, "Lon": -17.50915 }, "geometry": { "type": "Point", "coordinates": [ -17.50915, 64.48757 ] } },
{ "type": "Feature", "properties": { "xID": 1, "Region": "Antarctic", "Tally": 1, "LakeNum": "Antarctic1", "Name": "Sovetskaya Lake", "Lat": -78.1, "Lon": 88.5 }, "geometry": { "type": "Point", "coordinates": [ 88.5, -78.1 ] } },
{ "type": "Feature", "properties": { "xID": 2, "Region": "Antarctic", "Tally": 2, "LakeNum": "Antarctic2", "Name": "Lake Vostok", "Lat": -78.15, "Lon": 104.5 }, "geometry": { "type": "Point", "coordinates": [ 104.5, -78.15 ] } },
{ "type": "Feature", "properties": { "xID": 3, "Region": "Antarctic", "Tally": 3, "LakeNum": "Antarctic3", "Name": "SPRI-3", "Lat": -76.57, "Lon": 124.8 }, "geometry": { "type": "Point", "coordinates": [ 124.8, -76.57 ] } },
{ "type": "Feature", "properties": { "xID": 4, "Region": "Antarctic", "Tally": 4, "LakeNum": "Antarctic4", "Name": "SPRI-4", "Lat": -73.28, "Lon": 157.28 }, "geometry": { "type": "Point", "coordinates": [ 157.28, -73.28 ] } },
{ "type": "Feature", "properties": { "xID": 5, "Region": "Antarctic", "Tally": 5, "LakeNum": "Antarctic5", "Name": "SPRI-5", "Lat": -77.2, "Lon": 119.27 }, "geometry": { "type": "Point", "coordinates": [ 119.27, -77.2 ] } },
{ "type": "Feature", "properties": { "xID": 6, "Region": "Antarctic", "Tally": 6, "LakeNum": "Antarctic6", "Name": "Concordia Lake", "Lat": -74.07, "Lon": 125.02 }, "geometry": { "type": "Point", "coordinates": [ 125.02, -74.07 ] } },
{ "type": "Feature", "properties": { "xID": 7, "Region": "Antarctic", "Tally": 7, "LakeNum": "Antarctic7", "Name": "SPRI-7", "Lat": -88.3, "Lon": -150.0 }, "geometry": { "type": "Point", "coordinates": [ -150.0, -88.3 ] } },
{ "type": "Feature", "properties": { "xID": 8, "Region": "Antarctic", "Tally": 8, "LakeNum": "Antarctic8", "Name": "SPRI-8", "Lat": -72.31, "Lon": 123.94 }, "geometry": { "type": "Point", "coordinates": [ 123.94, -72.31 ] } },
{ "type": "Feature", "properties": { "xID": 9, "Region": "Antarctic", "Tally": 9, "LakeNum": "Antarctic9", "Name": "SPRI-9\/16\/20", "Lat": -76.8, "Lon": 129.7 }, "geometry": { "type": "Point", "coordinates": [ 129.7, -76.8 ] } },
{ "type": "Feature", "properties": { "xID": 10, "Region": "Antarctic", "Tally": 10, "LakeNum": "Antarctic10", "Name": "SPRI-10", "Lat": -75.94, "Lon": 127.41 }, "geometry": { "type": "Point", "coordinates": [ 127.41, -75.94 ] } },
{ "type": "Feature", "properties": { "xID": 11, "Region": "Antarctic", "Tally": 11, "LakeNum": "Antarctic11", "Name": "SPRI-11\/ITL-7", "Lat": -75.81, "Lon": 126.56 }, "geometry": { "type": "Point", "coordinates": [ 126.56, -75.81 ] } },
{ "type": "Feature", "properties": { "xID": 12, "Region": "Antarctic", "Tally": 12, "LakeNum": "Antarctic12", "Name": "SPRI-12", "Lat": -75.65, "Lon": 125.6 }, "geometry": { "type": "Point", "coordinates": [ 125.6, -75.65 ] } },
{ "type": "Feature", "properties": { "xID": 13, "Region": "Antarctic", "Tally": 13, "LakeNum": "Antarctic13", "Name": "SPRI-13\/14\/ITL-10", "Lat": -75.84, "Lon": 122.66 }, "geometry": { "type": "Point", "coordinates": [ 122.66, -75.84 ] } },
{ "type": "Feature", "properties": { "xID": 14, "Region": "Antarctic", "Tally": 14, "LakeNum": "Antarctic14", "Name": "SPRI-15", "Lat": -75.14, "Lon": 126.98 }, "geometry": { "type": "Point", "coordinates": [ 126.98, -75.14 ] } },
{ "type": "Feature", "properties": { "xID": 15, "Region": "Antarctic", "Tally": 15, "LakeNum": "Antarctic15", "Name": "SPRI-17", "Lat": -73.45, "Lon": 119.54 }, "geometry": { "type": "Point", "coordinates": [ 119.54, -73.45 ] } },
{ "type": "Feature", "properties": { "xID": 16, "Region": "Antarctic", "Tally": 16, "LakeNum": "Antarctic16", "Name": "Adventure Trench Lake", "Lat": -76.237, "Lon": 135.339 }, "geometry": { "type": "Point", "coordinates": [ 135.339, -76.237 ] } },
{ "type": "Feature", "properties": { "xID": 17, "Region": "Antarctic", "Tally": 17, "LakeNum": "Antarctic17", "Name": "SPRI-19", "Lat": -79.93, "Lon": 148.27 }, "geometry": { "type": "Point", "coordinates": [ 148.27, -79.93 ] } },
{ "type": "Feature", "properties": { "xID": 18, "Region": "Antarctic", "Tally": 18, "LakeNum": "Antarctic18", "Name": "SPRI-21", "Lat": -74.91, "Lon": 128.9 }, "geometry": { "type": "Point", "coordinates": [ 128.9, -74.91 ] } },
{ "type": "Feature", "properties": { "xID": 19, "Region": "Antarctic", "Tally": 19, "LakeNum": "Antarctic19", "Name": "SPRI-22", "Lat": -75.97, "Lon": 124.95 }, "geometry": { "type": "Point", "coordinates": [ 124.95, -75.97 ] } },
{ "type": "Feature", "properties": { "xID": 20, "Region": "Antarctic", "Tally": 20, "LakeNum": "Antarctic20", "Name": "SPRI-23", "Lat": -75.78, "Lon": 125.97 }, "geometry": { "type": "Point", "coordinates": [ 125.97, -75.78 ] } },
{ "type": "Feature", "properties": { "xID": 21, "Region": "Antarctic", "Tally": 21, "LakeNum": "Antarctic21", "Name": "SPRI-24", "Lat": -75.69, "Lon": 126.48 }, "geometry": { "type": "Point", "coordinates": [ 126.48, -75.69 ] } },
{ "type": "Feature", "properties": { "xID": 22, "Region": "Antarctic", "Tally": 22, "LakeNum": "Antarctic22", "Name": "SPRI-25\/76", "Lat": -74.974, "Lon": 124.701 }, "geometry": { "type": "Point", "coordinates": [ 124.701, -74.974 ] } },
{ "type": "Feature", "properties": { "xID": 23, "Region": "Antarctic", "Tally": 23, "LakeNum": "Antarctic23", "Name": "SPRI-26", "Lat": -75.61, "Lon": 120.39 }, "geometry": { "type": "Point", "coordinates": [ 120.39, -75.61 ] } },
{ "type": "Feature", "properties": { "xID": 24, "Region": "Antarctic", "Tally": 24, "LakeNum": "Antarctic24", "Name": "SPRI-27", "Lat": -73.4, "Lon": 126.9 }, "geometry": { "type": "Point", "coordinates": [ 126.9, -73.4 ] } },
{ "type": "Feature", "properties": { "xID": 25, "Region": "Antarctic", "Tally": 25, "LakeNum": "Antarctic25", "Name": "SPRI-28\/63", "Lat": -73.17, "Lon": 128.35 }, "geometry": { "type": "Point", "coordinates": [ 128.35, -73.17 ] } },
{ "type": "Feature", "properties": { "xID": 26, "Region": "Antarctic", "Tally": 26, "LakeNum": "Antarctic26", "Name": "SPRI-29", "Lat": -69.71, "Lon": 140.95 }, "geometry": { "type": "Point", "coordinates": [ 140.95, -69.71 ] } },
{ "type": "Feature", "properties": { "xID": 27, "Region": "Antarctic", "Tally": 27, "LakeNum": "Antarctic27", "Name": "SPRI-30\/58", "Lat": -68.44, "Lon": 136.87 }, "geometry": { "type": "Point", "coordinates": [ 136.87, -68.44 ] } },
{ "type": "Feature", "properties": { "xID": 28, "Region": "Antarctic", "Tally": 28, "LakeNum": "Antarctic28", "Name": "SPRI-31", "Lat": -75.82, "Lon": 129.03 }, "geometry": { "type": "Point", "coordinates": [ 129.03, -75.82 ] } },
{ "type": "Feature", "properties": { "xID": 29, "Region": "Antarctic", "Tally": 29, "LakeNum": "Antarctic29", "Name": "SPRI-32", "Lat": -76.4, "Lon": 126.03 }, "geometry": { "type": "Point", "coordinates": [ 126.03, -76.4 ] } },
{ "type": "Feature", "properties": { "xID": 30, "Region": "Antarctic", "Tally": 30, "LakeNum": "Antarctic30", "Name": "SPRI-33", "Lat": -74.03, "Lon": 118.5 }, "geometry": { "type": "Point", "coordinates": [ 118.5, -74.03 ] } },
{ "type": "Feature", "properties": { "xID": 31, "Region": "Antarctic", "Tally": 31, "LakeNum": "Antarctic31", "Name": "Aurora Lake", "Lat": -74.46, "Lon": 119.37 }, "geometry": { "type": "Point", "coordinates": [ 119.37, -74.46 ] } },
{ "type": "Feature", "properties": { "xID": 32, "Region": "Antarctic", "Tally": 32, "LakeNum": "Antarctic32", "Name": "SPRI-35", "Lat": -77.12, "Lon": 126.3 }, "geometry": { "type": "Point", "coordinates": [ 126.3, -77.12 ] } },
{ "type": "Feature", "properties": { "xID": 33, "Region": "Antarctic", "Tally": 33, "LakeNum": "Antarctic33", "Name": "SPRI-36", "Lat": -71.81, "Lon": 128.35 }, "geometry": { "type": "Point", "coordinates": [ 128.35, -71.81 ] } },
{ "type": "Feature", "properties": { "xID": 34, "Region": "Antarctic", "Tally": 34, "LakeNum": "Antarctic34", "Name": "SPRI-37", "Lat": -71.79, "Lon": 128.2 }, "geometry": { "type": "Point", "coordinates": [ 128.2, -71.79 ] } },
{ "type": "Feature", "properties": { "xID": 35, "Region": "Antarctic", "Tally": 35, "LakeNum": "Antarctic35", "Name": "SPRI-38", "Lat": -74.04, "Lon": 139.92 }, "geometry": { "type": "Point", "coordinates": [ 139.92, -74.04 ] } },
{ "type": "Feature", "properties": { "xID": 36, "Region": "Antarctic", "Tally": 36, "LakeNum": "Antarctic36", "Name": "SPRI-39", "Lat": -75.73, "Lon": 148.86 }, "geometry": { "type": "Point", "coordinates": [ 148.86, -75.73 ] } },
{ "type": "Feature", "properties": { "xID": 37, "Region": "Antarctic", "Tally": 37, "LakeNum": "Antarctic37", "Name": "SPRI-40", "Lat": -88.5, "Lon": 120.0 }, "geometry": { "type": "Point", "coordinates": [ 120.0, -88.5 ] } },
{ "type": "Feature", "properties": { "xID": 38, "Region": "Antarctic", "Tally": 38, "LakeNum": "Antarctic38", "Name": "SPRI-41", "Lat": -87.0, "Lon": 75.0 }, "geometry": { "type": "Point", "coordinates": [ 75.0, -87.0 ] } },
{ "type": "Feature", "properties": { "xID": 39, "Region": "Antarctic", "Tally": 39, "LakeNum": "Antarctic39", "Name": "SPRI-42\/43", "Lat": -76.19, "Lon": 125.18 }, "geometry": { "type": "Point", "coordinates": [ 125.18, -76.19 ] } },
{ "type": "Feature", "properties": { "xID": 40, "Region": "Antarctic", "Tally": 40, "LakeNum": "Antarctic40", "Name": "SPRI-44", "Lat": -81.84, "Lon": 133.47 }, "geometry": { "type": "Point", "coordinates": [ 133.47, -81.84 ] } },
{ "type": "Feature", "properties": { "xID": 41, "Region": "Antarctic", "Tally": 41, "LakeNum": "Antarctic41", "Name": "SPRI-45", "Lat": -79.43, "Lon": 154.13 }, "geometry": { "type": "Point", "coordinates": [ 154.13, -79.43 ] } },
{ "type": "Feature", "properties": { "xID": 42, "Region": "Antarctic", "Tally": 42, "LakeNum": "Antarctic42", "Name": "SPRI-46", "Lat": -77.4, "Lon": 100.4 }, "geometry": { "type": "Point", "coordinates": [ 100.4, -77.4 ] } },
{ "type": "Feature", "properties": { "xID": 43, "Region": "Antarctic", "Tally": 43, "LakeNum": "Antarctic43", "Name": "SPRI-47", "Lat": -76.8, "Lon": 97.5 }, "geometry": { "type": "Point", "coordinates": [ 97.5, -76.8 ] } },
{ "type": "Feature", "properties": { "xID": 44, "Region": "Antarctic", "Tally": 44, "LakeNum": "Antarctic44", "Name": "SPRI-48", "Lat": -88.73, "Lon": 64.52 }, "geometry": { "type": "Point", "coordinates": [ 64.52, -88.73 ] } },
{ "type": "Feature", "properties": { "xID": 45, "Region": "Antarctic", "Tally": 45, "LakeNum": "Antarctic45", "Name": "SPRI-49", "Lat": -88.36, "Lon": 70.54 }, "geometry": { "type": "Point", "coordinates": [ 70.54, -88.36 ] } },
{ "type": "Feature", "properties": { "xID": 46, "Region": "Antarctic", "Tally": 46, "LakeNum": "Antarctic46", "Name": "SPRI-50", "Lat": -88.37, "Lon": 112.68 }, "geometry": { "type": "Point", "coordinates": [ 112.68, -88.37 ] } },
{ "type": "Feature", "properties": { "xID": 47, "Region": "Antarctic", "Tally": 47, "LakeNum": "Antarctic47", "Name": "SPRI-51", "Lat": -87.61, "Lon": 148.62 }, "geometry": { "type": "Point", "coordinates": [ 148.62, -87.61 ] } },
{ "type": "Feature", "properties": { "xID": 48, "Region": "Antarctic", "Tally": 48, "LakeNum": "Antarctic48", "Name": "SPRI-52", "Lat": -88.71, "Lon": 136.88 }, "geometry": { "type": "Point", "coordinates": [ 136.88, -88.71 ] } },
{ "type": "Feature", "properties": { "xID": 49, "Region": "Antarctic", "Tally": 49, "LakeNum": "Antarctic49", "Name": "SPRI-53", "Lat": -88.42, "Lon": 144.5 }, "geometry": { "type": "Point", "coordinates": [ 144.5, -88.42 ] } },
{ "type": "Feature", "properties": { "xID": 50, "Region": "Antarctic", "Tally": 50, "LakeNum": "Antarctic50", "Name": "SPRI-54\/59", "Lat": -77.1, "Lon": 92.5 }, "geometry": { "type": "Point", "coordinates": [ 92.5, -77.1 ] } },
{ "type": "Feature", "properties": { "xID": 51, "Region": "Antarctic", "Tally": 51, "LakeNum": "Antarctic51", "Name": "SPRI-55", "Lat": -78.0, "Lon": 99.0 }, "geometry": { "type": "Point", "coordinates": [ 99.0, -78.0 ] } },
{ "type": "Feature", "properties": { "xID": 52, "Region": "Antarctic", "Tally": 52, "LakeNum": "Antarctic52", "Name": "SPRI-56", "Lat": -71.13, "Lon": 155.68 }, "geometry": { "type": "Point", "coordinates": [ 155.68, -71.13 ] } },
{ "type": "Feature", "properties": { "xID": 53, "Region": "Antarctic", "Tally": 53, "LakeNum": "Antarctic53", "Name": "SPRI-57", "Lat": -70.47, "Lon": 151.6 }, "geometry": { "type": "Point", "coordinates": [ 151.6, -70.47 ] } },
{ "type": "Feature", "properties": { "xID": 54, "Region": "Antarctic", "Tally": 54, "LakeNum": "Antarctic54", "Name": "SPRI-60", "Lat": -76.8, "Lon": 93.5 }, "geometry": { "type": "Point", "coordinates": [ 93.5, -76.8 ] } },
{ "type": "Feature", "properties": { "xID": 55, "Region": "Antarctic", "Tally": 55, "LakeNum": "Antarctic55", "Name": "SPRI-61", "Lat": -79.15, "Lon": 144.3 }, "geometry": { "type": "Point", "coordinates": [ 144.3, -79.15 ] } },
{ "type": "Feature", "properties": { "xID": 56, "Region": "Antarctic", "Tally": 56, "LakeNum": "Antarctic56", "Name": "SPRI-62", "Lat": -72.74, "Lon": 129.41 }, "geometry": { "type": "Point", "coordinates": [ 129.41, -72.74 ] } },
{ "type": "Feature", "properties": { "xID": 57, "Region": "Antarctic", "Tally": 57, "LakeNum": "Antarctic57", "Name": "SPRI-64", "Lat": -75.76, "Lon": 119.71 }, "geometry": { "type": "Point", "coordinates": [ 119.71, -75.76 ] } },
{ "type": "Feature", "properties": { "xID": 58, "Region": "Antarctic", "Tally": 58, "LakeNum": "Antarctic58", "Name": "SPRI-65", "Lat": -76.07, "Lon": 118.11 }, "geometry": { "type": "Point", "coordinates": [ 118.11, -76.07 ] } },
{ "type": "Feature", "properties": { "xID": 59, "Region": "Antarctic", "Tally": 59, "LakeNum": "Antarctic59", "Name": "SPRI-66", "Lat": -78.0, "Lon": 118.6 }, "geometry": { "type": "Point", "coordinates": [ 118.6, -78.0 ] } },
{ "type": "Feature", "properties": { "xID": 60, "Region": "Antarctic", "Tally": 60, "LakeNum": "Antarctic60", "Name": "SPRI-67", "Lat": -79.09, "Lon": 246.5 }, "geometry": { "type": "Point", "coordinates": [ 246.5, -79.09 ] } },
{ "type": "Feature", "properties": { "xID": 61, "Region": "Antarctic", "Tally": 61, "LakeNum": "Antarctic61", "Name": "SPRI-68", "Lat": -82.06, "Lon": 261.05 }, "geometry": { "type": "Point", "coordinates": [ 261.05, -82.06 ] } },
{ "type": "Feature", "properties": { "xID": 62, "Region": "Antarctic", "Tally": 62, "LakeNum": "Antarctic62", "Name": "SPRI-69", "Lat": -79.04, "Lon": 67.73 }, "geometry": { "type": "Point", "coordinates": [ 67.73, -79.04 ] } },
{ "type": "Feature", "properties": { "xID": 63, "Region": "Antarctic", "Tally": 63, "LakeNum": "Antarctic63", "Name": "South Pole Lake (SPRI-70)", "Lat": -89.97, "Lon": 198.44 }, "geometry": { "type": "Point", "coordinates": [ 198.44, -89.97 ] } },
{ "type": "Feature", "properties": { "xID": 64, "Region": "Antarctic", "Tally": 64, "LakeNum": "Antarctic64", "Name": "SPRI-71", "Lat": -82.99, "Lon": 265.08 }, "geometry": { "type": "Point", "coordinates": [ 265.08, -82.99 ] } },
{ "type": "Feature", "properties": { "xID": 65, "Region": "Antarctic", "Tally": 65, "LakeNum": "Antarctic65", "Name": "SPRI-72", "Lat": -86.36, "Lon": 253.83 }, "geometry": { "type": "Point", "coordinates": [ 253.83, -86.36 ] } },
{ "type": "Feature", "properties": { "xID": 66, "Region": "Antarctic", "Tally": 66, "LakeNum": "Antarctic66", "Name": "SPRI-73", "Lat": -86.43, "Lon": 254.44 }, "geometry": { "type": "Point", "coordinates": [ 254.44, -86.43 ] } },
{ "type": "Feature", "properties": { "xID": 67, "Region": "Antarctic", "Tally": 67, "LakeNum": "Antarctic67", "Name": "SPRI-74", "Lat": -86.77, "Lon": 248.74 }, "geometry": { "type": "Point", "coordinates": [ 248.74, -86.77 ] } },
{ "type": "Feature", "properties": { "xID": 68, "Region": "Antarctic", "Tally": 68, "LakeNum": "Antarctic68", "Name": "SPRI-75", "Lat": -87.77, "Lon": 234.7 }, "geometry": { "type": "Point", "coordinates": [ 234.7, -87.77 ] } },
{ "type": "Feature", "properties": { "xID": 69, "Region": "Antarctic", "Tally": 69, "LakeNum": "Antarctic69", "Name": "SPRI-77", "Lat": -74.92, "Lon": 124.19 }, "geometry": { "type": "Point", "coordinates": [ 124.19, -74.92 ] } },
{ "type": "Feature", "properties": { "xID": 70, "Region": "Antarctic", "Tally": 70, "LakeNum": "Antarctic70", "Name": "Subglacial Lake Ellsworth", "Lat": -78.99, "Lon": 269.43 }, "geometry": { "type": "Point", "coordinates": [ 269.43, -78.99 ] } },
{ "type": "Feature", "properties": { "xID": 71, "Region": "Antarctic", "Tally": 71, "LakeNum": "Antarctic71", "Name": "ITL-1", "Lat": -75.46, "Lon": 121.63 }, "geometry": { "type": "Point", "coordinates": [ 121.63, -75.46 ] } },
{ "type": "Feature", "properties": { "xID": 72, "Region": "Antarctic", "Tally": 72, "LakeNum": "Antarctic72", "Name": "ITL-2", "Lat": -75.624, "Lon": 121.607 }, "geometry": { "type": "Point", "coordinates": [ 121.607, -75.624 ] } },
{ "type": "Feature", "properties": { "xID": 73, "Region": "Antarctic", "Tally": 73, "LakeNum": "Antarctic73", "Name": "ITL-3", "Lat": -75.422, "Lon": 122.315 }, "geometry": { "type": "Point", "coordinates": [ 122.315, -75.422 ] } },
{ "type": "Feature", "properties": { "xID": 74, "Region": "Antarctic", "Tally": 74, "LakeNum": "Antarctic74", "Name": "ITL-4", "Lat": -74.785, "Lon": 122.284 }, "geometry": { "type": "Point", "coordinates": [ 122.284, -74.785 ] } },
{ "type": "Feature", "properties": { "xID": 75, "Region": "Antarctic", "Tally": 75, "LakeNum": "Antarctic75", "Name": "ITL-5", "Lat": -75.345, "Lon": 125.022 }, "geometry": { "type": "Point", "coordinates": [ 125.022, -75.345 ] } },
{ "type": "Feature", "properties": { "xID": 76, "Region": "Antarctic", "Tally": 76, "LakeNum": "Antarctic76", "Name": "ITL 6", "Lat": -75.954, "Lon": 126.028 }, "geometry": { "type": "Point", "coordinates": [ 126.028, -75.954 ] } },
{ "type": "Feature", "properties": { "xID": 77, "Region": "Antarctic", "Tally": 77, "LakeNum": "Antarctic77", "Name": "ITL 8", "Lat": -74.913, "Lon": 121.732 }, "geometry": { "type": "Point", "coordinates": [ 121.732, -74.913 ] } },
{ "type": "Feature", "properties": { "xID": 78, "Region": "Antarctic", "Tally": 78, "LakeNum": "Antarctic78", "Name": "ITL 9", "Lat": -75.024, "Lon": 125.918 }, "geometry": { "type": "Point", "coordinates": [ 125.918, -75.024 ] } },
{ "type": "Feature", "properties": { "xID": 79, "Region": "Antarctic", "Tally": 79, "LakeNum": "Antarctic79", "Name": "ITL 11", "Lat": -75.608, "Lon": 117.686 }, "geometry": { "type": "Point", "coordinates": [ 117.686, -75.608 ] } },
{ "type": "Feature", "properties": { "xID": 80, "Region": "Antarctic", "Tally": 80, "LakeNum": "Antarctic80", "Name": "ITL 12", "Lat": -74.673, "Lon": 116.421 }, "geometry": { "type": "Point", "coordinates": [ 116.421, -74.673 ] } },
{ "type": "Feature", "properties": { "xID": 81, "Region": "Antarctic", "Tally": 81, "LakeNum": "Antarctic81", "Name": "ITL 13", "Lat": -74.881, "Lon": 116.936 }, "geometry": { "type": "Point", "coordinates": [ 116.936, -74.881 ] } },
{ "type": "Feature", "properties": { "xID": 82, "Region": "Antarctic", "Tally": 82, "LakeNum": "Antarctic82", "Name": "Vincennes Lake", "Lat": -74.158, "Lon": 127.94 }, "geometry": { "type": "Point", "coordinates": [ 127.94, -74.158 ] } },
{ "type": "Feature", "properties": { "xID": 83, "Region": "Antarctic", "Tally": 83, "LakeNum": "Antarctic83", "Name": "ITL 17", "Lat": -73.702, "Lon": 119.715 }, "geometry": { "type": "Point", "coordinates": [ 119.715, -73.702 ] } },
{ "type": "Feature", "properties": { "xID": 84, "Region": "Antarctic", "Tally": 84, "LakeNum": "Antarctic84", "Name": "ITL 18", "Lat": -77.626, "Lon": 115.191 }, "geometry": { "type": "Point", "coordinates": [ 115.191, -77.626 ] } },
{ "type": "Feature", "properties": { "xID": 85, "Region": "Antarctic", "Tally": 85, "LakeNum": "Antarctic85", "Name": "M-310", "Lat": -74.3, "Lon": 26.939 }, "geometry": { "type": "Point", "coordinates": [ 26.939, -74.3 ] } },
{ "type": "Feature", "properties": { "xID": 86, "Region": "Antarctic", "Tally": 86, "LakeNum": "Antarctic86", "Name": "M-511", "Lat": -80.903, "Lon": 14.467 }, "geometry": { "type": "Point", "coordinates": [ 14.467, -80.903 ] } },
{ "type": "Feature", "properties": { "xID": 87, "Region": "Antarctic", "Tally": 87, "LakeNum": "Antarctic87", "Name": "M-511", "Lat": -75.167, "Lon": 27.289 }, "geometry": { "type": "Point", "coordinates": [ 27.289, -75.167 ] } },
{ "type": "Feature", "properties": { "xID": 88, "Region": "Antarctic", "Tally": 88, "LakeNum": "Antarctic88", "Name": "M-610", "Lat": -75.745, "Lon": 33.091 }, "geometry": { "type": "Point", "coordinates": [ 33.091, -75.745 ] } },
{ "type": "Feature", "properties": { "xID": 89, "Region": "Antarctic", "Tally": 89, "LakeNum": "Antarctic89", "Name": "M-2011", "Lat": -77.499, "Lon": 37.432 }, "geometry": { "type": "Point", "coordinates": [ 37.432, -77.499 ] } },
{ "type": "Feature", "properties": { "xID": 90, "Region": "Antarctic", "Tally": 90, "LakeNum": "Antarctic90", "Name": "M-2710", "Lat": -73.424, "Lon": 39.892 }, "geometry": { "type": "Point", "coordinates": [ 39.892, -73.424 ] } },
{ "type": "Feature", "properties": { "xID": 91, "Region": "Antarctic", "Tally": 91, "LakeNum": "Antarctic91", "Name": "M-2713", "Lat": -75.463, "Lon": 27.032 }, "geometry": { "type": "Point", "coordinates": [ 27.032, -75.463 ] } },
{ "type": "Feature", "properties": { "xID": 92, "Region": "Antarctic", "Tally": 92, "LakeNum": "Antarctic92", "Name": "M-3112", "Lat": -77.704, "Lon": 44.461 }, "geometry": { "type": "Point", "coordinates": [ 44.461, -77.704 ] } },
{ "type": "Feature", "properties": { "xID": 93, "Region": "Antarctic", "Tally": 93, "LakeNum": "Antarctic93", "Name": "M-3710", "Lat": -77.962, "Lon": 32.617 }, "geometry": { "type": "Point", "coordinates": [ 32.617, -77.962 ] } },
{ "type": "Feature", "properties": { "xID": 94, "Region": "Antarctic", "Tally": 94, "LakeNum": "Antarctic94", "Name": "M-3010", "Lat": -82.343, "Lon": 77.891 }, "geometry": { "type": "Point", "coordinates": [ 77.891, -82.343 ] } },
{ "type": "Feature", "properties": { "xID": 95, "Region": "Antarctic", "Tally": 95, "LakeNum": "Antarctic95", "Name": "M-3510", "Lat": -77.958, "Lon": 62.728 }, "geometry": { "type": "Point", "coordinates": [ 62.728, -77.958 ] } },
{ "type": "Feature", "properties": { "xID": 96, "Region": "Antarctic", "Tally": 96, "LakeNum": "Antarctic96", "Name": "M-3112", "Lat": -77.7, "Lon": 45.766 }, "geometry": { "type": "Point", "coordinates": [ 45.766, -77.7 ] } },
{ "type": "Feature", "properties": { "xID": 97, "Region": "Antarctic", "Tally": 97, "LakeNum": "Antarctic97", "Name": "M-3809", "Lat": -77.236, "Lon": 43.698 }, "geometry": { "type": "Point", "coordinates": [ 43.698, -77.236 ] } },
{ "type": "Feature", "properties": { "xID": 98, "Region": "Antarctic", "Tally": 98, "LakeNum": "Antarctic98", "Name": "M-3809", "Lat": -72.784, "Lon": 58.797 }, "geometry": { "type": "Point", "coordinates": [ 58.797, -72.784 ] } },
{ "type": "Feature", "properties": { "xID": 99, "Region": "Antarctic", "Tally": 99, "LakeNum": "Antarctic99", "Name": "M-3211", "Lat": -72.096, "Lon": 56.768 }, "geometry": { "type": "Point", "coordinates": [ 56.768, -72.096 ] } },
{ "type": "Feature", "properties": { "xID": 100, "Region": "Antarctic", "Tally": 100, "LakeNum": "Antarctic100", "Name": "SAE35", "Lat": -80.302, "Lon": 45.825 }, "geometry": { "type": "Point", "coordinates": [ 45.825, -80.302 ] } },
{ "type": "Feature", "properties": { "xID": 101, "Region": "Antarctic", "Tally": 101, "LakeNum": "Antarctic101", "Name": "WLK-6", "Lat": -77.097, "Lon": 144.664 }, "geometry": { "type": "Point", "coordinates": [ 144.664, -77.097 ] } },
{ "type": "Feature", "properties": { "xID": 102, "Region": "Antarctic", "Tally": 102, "LakeNum": "Antarctic102", "Name": "WLK-14", "Lat": -76.706, "Lon": 145.095 }, "geometry": { "type": "Point", "coordinates": [ 145.095, -76.706 ] } },
{ "type": "Feature", "properties": { "xID": 103, "Region": "Antarctic", "Tally": 103, "LakeNum": "Antarctic103", "Name": "WLK-12", "Lat": -76.433, "Lon": 144.294 }, "geometry": { "type": "Point", "coordinates": [ 144.294, -76.433 ] } },
{ "type": "Feature", "properties": { "xID": 104, "Region": "Antarctic", "Tally": 104, "LakeNum": "Antarctic104", "Name": "WLK-24", "Lat": -76.116, "Lon": 144.753 }, "geometry": { "type": "Point", "coordinates": [ 144.753, -76.116 ] } },
{ "type": "Feature", "properties": { "xID": 105, "Region": "Antarctic", "Tally": 105, "LakeNum": "Antarctic105", "Name": "WLK-17", "Lat": -75.095, "Lon": 126.415 }, "geometry": { "type": "Point", "coordinates": [ 126.415, -75.095 ] } },
{ "type": "Feature", "properties": { "xID": 106, "Region": "Antarctic", "Tally": 106, "LakeNum": "Antarctic106", "Name": "DCS\/DCSx\/X02b - X02e", "Lat": -80.413, "Lon": 139.233 }, "geometry": { "type": "Point", "coordinates": [ 139.233, -80.413 ] } },
{ "type": "Feature", "properties": { "xID": 107, "Region": "Antarctic", "Tally": 107, "LakeNum": "Antarctic107", "Name": "DCS\/DCSx\/X01c", "Lat": -81.838, "Lon": 120.084 }, "geometry": { "type": "Point", "coordinates": [ 120.084, -81.838 ] } },
{ "type": "Feature", "properties": { "xID": 108, "Region": "Antarctic", "Tally": 108, "LakeNum": "Antarctic108", "Name": "DCS\/DCSx\/X01d", "Lat": -80.65, "Lon": 137.545 }, "geometry": { "type": "Point", "coordinates": [ 137.545, -80.65 ] } },
{ "type": "Feature", "properties": { "xID": 109, "Region": "Antarctic", "Tally": 109, "LakeNum": "Antarctic109", "Name": "LVS-12", "Lat": -75.847, "Lon": 117.987 }, "geometry": { "type": "Point", "coordinates": [ 117.987, -75.847 ] } },
{ "type": "Feature", "properties": { "xID": 110, "Region": "Antarctic", "Tally": 110, "LakeNum": "Antarctic110", "Name": "LVS-9", "Lat": -79.304, "Lon": 88.875 }, "geometry": { "type": "Point", "coordinates": [ 88.875, -79.304 ] } },
{ "type": "Feature", "properties": { "xID": 111, "Region": "Antarctic", "Tally": 111, "LakeNum": "Antarctic111", "Name": "LVS-13", "Lat": -77.981, "Lon": 91.435 }, "geometry": { "type": "Point", "coordinates": [ 91.435, -77.981 ] } },
{ "type": "Feature", "properties": { "xID": 112, "Region": "Antarctic", "Tally": 112, "LakeNum": "Antarctic112", "Name": "90oE lake", "Lat": -77.379, "Lon": 91.08 }, "geometry": { "type": "Point", "coordinates": [ 91.08, -77.379 ] } },
{ "type": "Feature", "properties": { "xID": 113, "Region": "Antarctic", "Tally": 113, "LakeNum": "Antarctic113", "Name": "C25SAE1", "Lat": -76.75, "Lon": 94.566 }, "geometry": { "type": "Point", "coordinates": [ 94.566, -76.75 ] } },
{ "type": "Feature", "properties": { "xID": 114, "Region": "Antarctic", "Tally": 114, "LakeNum": "Antarctic114", "Name": "C25SAE2", "Lat": -77.083, "Lon": 94.833 }, "geometry": { "type": "Point", "coordinates": [ 94.833, -77.083 ] } },
{ "type": "Feature", "properties": { "xID": 115, "Region": "Antarctic", "Tally": 115, "LakeNum": "Antarctic115", "Name": "Bindschadler5", "Lat": -80.61, "Lon": 236.006 }, "geometry": { "type": "Point", "coordinates": [ 236.006, -80.61 ] } },
{ "type": "Feature", "properties": { "xID": 116, "Region": "Antarctic", "Tally": 116, "LakeNum": "Antarctic116", "Name": "Kamb10", "Lat": -81.446, "Lon": 239.866 }, "geometry": { "type": "Point", "coordinates": [ 239.866, -81.446 ] } },
{ "type": "Feature", "properties": { "xID": 117, "Region": "Antarctic", "Tally": 117, "LakeNum": "Antarctic117", "Name": "L1", "Lat": -74.0, "Lon": 133.27 }, "geometry": { "type": "Point", "coordinates": [ 133.27, -74.0 ] } },
{ "type": "Feature", "properties": { "xID": 118, "Region": "Antarctic", "Tally": 118, "LakeNum": "Antarctic118", "Name": "U1", "Lat": -75.94, "Lon": 135.0 }, "geometry": { "type": "Point", "coordinates": [ 135.0, -75.94 ] } },
{ "type": "Feature", "properties": { "xID": 119, "Region": "Antarctic", "Tally": 119, "LakeNum": "Antarctic119", "Name": "U2", "Lat": -76.34, "Lon": 135.77 }, "geometry": { "type": "Point", "coordinates": [ 135.77, -76.34 ] } },
{ "type": "Feature", "properties": { "xID": 120, "Region": "Antarctic", "Tally": 120, "LakeNum": "Antarctic120", "Name": "U3", "Lat": -76.68, "Lon": 135.93 }, "geometry": { "type": "Point", "coordinates": [ 135.93, -76.68 ] } },
{ "type": "Feature", "properties": { "xID": 121, "Region": "Antarctic", "Tally": 121, "LakeNum": "Antarctic121", "Name": null, "Lat": -78.583, "Lon": 107.131 }, "geometry": { "type": "Point", "coordinates": [ 107.131, -78.583 ] } },
{ "type": "Feature", "properties": { "xID": 122, "Region": "Antarctic", "Tally": 122, "LakeNum": "Antarctic122", "Name": null, "Lat": -77.232, "Lon": 103.724 }, "geometry": { "type": "Point", "coordinates": [ 103.724, -77.232 ] } },
{ "type": "Feature", "properties": { "xID": 123, "Region": "Antarctic", "Tally": 123, "LakeNum": "Antarctic123", "Name": null, "Lat": -77.853, "Lon": 107.531 }, "geometry": { "type": "Point", "coordinates": [ 107.531, -77.853 ] } },
{ "type": "Feature", "properties": { "xID": 124, "Region": "Antarctic", "Tally": 124, "LakeNum": "Antarctic124", "Name": null, "Lat": -77.468, "Lon": 107.259 }, "geometry": { "type": "Point", "coordinates": [ 107.259, -77.468 ] } },
{ "type": "Feature", "properties": { "xID": 125, "Region": "Antarctic", "Tally": 125, "LakeNum": "Antarctic125", "Name": null, "Lat": -77.301, "Lon": 107.012 }, "geometry": { "type": "Point", "coordinates": [ 107.012, -77.301 ] } },
{ "type": "Feature", "properties": { "xID": 126, "Region": "Antarctic", "Tally": 126, "LakeNum": "Antarctic126", "Name": null, "Lat": -77.199, "Lon": 107.013 }, "geometry": { "type": "Point", "coordinates": [ 107.013, -77.199 ] } },
{ "type": "Feature", "properties": { "xID": 127, "Region": "Antarctic", "Tally": 127, "LakeNum": "Antarctic127", "Name": "LVS-8", "Lat": -76.938, "Lon": 106.696 }, "geometry": { "type": "Point", "coordinates": [ 106.696, -76.938 ] } },
{ "type": "Feature", "properties": { "xID": 128, "Region": "Antarctic", "Tally": 128, "LakeNum": "Antarctic128", "Name": null, "Lat": -76.659, "Lon": 106.02 }, "geometry": { "type": "Point", "coordinates": [ 106.02, -76.659 ] } },
{ "type": "Feature", "properties": { "xID": 129, "Region": "Antarctic", "Tally": 129, "LakeNum": "Antarctic129", "Name": null, "Lat": -76.596, "Lon": 106.019 }, "geometry": { "type": "Point", "coordinates": [ 106.019, -76.596 ] } },
{ "type": "Feature", "properties": { "xID": 130, "Region": "Antarctic", "Tally": 130, "LakeNum": "Antarctic130", "Name": null, "Lat": -78.325, "Lon": 104.593 }, "geometry": { "type": "Point", "coordinates": [ 104.593, -78.325 ] } },
{ "type": "Feature", "properties": { "xID": 131, "Region": "Antarctic", "Tally": 131, "LakeNum": "Antarctic131", "Name": null, "Lat": -78.08, "Lon": 107.351 }, "geometry": { "type": "Point", "coordinates": [ 107.351, -78.08 ] } },
{ "type": "Feature", "properties": { "xID": 132, "Region": "Antarctic", "Tally": 132, "LakeNum": "Antarctic132", "Name": null, "Lat": -78.054, "Lon": 107.798 }, "geometry": { "type": "Point", "coordinates": [ 107.798, -78.054 ] } },
{ "type": "Feature", "properties": { "xID": 133, "Region": "Antarctic", "Tally": 133, "LakeNum": "Antarctic133", "Name": null, "Lat": -77.666, "Lon": 107.509 }, "geometry": { "type": "Point", "coordinates": [ 107.509, -77.666 ] } },
{ "type": "Feature", "properties": { "xID": 134, "Region": "Antarctic", "Tally": 134, "LakeNum": "Antarctic134", "Name": null, "Lat": -77.602, "Lon": 107.509 }, "geometry": { "type": "Point", "coordinates": [ 107.509, -77.602 ] } },
{ "type": "Feature", "properties": { "xID": 135, "Region": "Antarctic", "Tally": 135, "LakeNum": "Antarctic135", "Name": null, "Lat": -77.577, "Lon": 107.508 }, "geometry": { "type": "Point", "coordinates": [ 107.508, -77.577 ] } },
{ "type": "Feature", "properties": { "xID": 136, "Region": "Antarctic", "Tally": 136, "LakeNum": "Antarctic136", "Name": null, "Lat": -77.975, "Lon": 103.985 }, "geometry": { "type": "Point", "coordinates": [ 103.985, -77.975 ] } },
{ "type": "Feature", "properties": { "xID": 137, "Region": "Antarctic", "Tally": 137, "LakeNum": "Antarctic137", "Name": null, "Lat": -78.598, "Lon": 105.368 }, "geometry": { "type": "Point", "coordinates": [ 105.368, -78.598 ] } },
{ "type": "Feature", "properties": { "xID": 138, "Region": "Antarctic", "Tally": 138, "LakeNum": "Antarctic138", "Name": null, "Lat": -78.665, "Lon": 105.859 }, "geometry": { "type": "Point", "coordinates": [ 105.859, -78.665 ] } },
{ "type": "Feature", "properties": { "xID": 139, "Region": "Antarctic", "Tally": 139, "LakeNum": "Antarctic139", "Name": null, "Lat": -77.884, "Lon": 103.617 }, "geometry": { "type": "Point", "coordinates": [ 103.617, -77.884 ] } },
{ "type": "Feature", "properties": { "xID": 140, "Region": "Antarctic", "Tally": 140, "LakeNum": "Antarctic140", "Name": null, "Lat": -77.804, "Lon": 103.757 }, "geometry": { "type": "Point", "coordinates": [ 103.757, -77.804 ] } },
{ "type": "Feature", "properties": { "xID": 141, "Region": "Antarctic", "Tally": 141, "LakeNum": "Antarctic141", "Name": null, "Lat": -76.907, "Lon": 101.962 }, "geometry": { "type": "Point", "coordinates": [ 101.962, -76.907 ] } },
{ "type": "Feature", "properties": { "xID": 142, "Region": "Antarctic", "Tally": 142, "LakeNum": "Antarctic142", "Name": null, "Lat": -76.699, "Lon": 101.433 }, "geometry": { "type": "Point", "coordinates": [ 101.433, -76.699 ] } },
{ "type": "Feature", "properties": { "xID": 143, "Region": "Antarctic", "Tally": 143, "LakeNum": "Antarctic143", "Name": null, "Lat": -76.292, "Lon": 101.74 }, "geometry": { "type": "Point", "coordinates": [ 101.74, -76.292 ] } },
{ "type": "Feature", "properties": { "xID": 144, "Region": "Antarctic", "Tally": 144, "LakeNum": "Antarctic144", "Name": null, "Lat": -78.118, "Lon": 104.299 }, "geometry": { "type": "Point", "coordinates": [ 104.299, -78.118 ] } },
{ "type": "Feature", "properties": { "xID": 145, "Region": "Antarctic", "Tally": 145, "LakeNum": "Antarctic145", "Name": "LVS-11", "Lat": -77.251, "Lon": 106.51 }, "geometry": { "type": "Point", "coordinates": [ 106.51, -77.251 ] } },
{ "type": "Feature", "properties": { "xID": 146, "Region": "Antarctic", "Tally": 146, "LakeNum": "Antarctic146", "Name": null, "Lat": -77.503, "Lon": 103.36 }, "geometry": { "type": "Point", "coordinates": [ 103.36, -77.503 ] } },
{ "type": "Feature", "properties": { "xID": 147, "Region": "Antarctic", "Tally": 147, "LakeNum": "Antarctic147", "Name": null, "Lat": -75.908, "Lon": 103.864 }, "geometry": { "type": "Point", "coordinates": [ 103.864, -75.908 ] } },
{ "type": "Feature", "properties": { "xID": 148, "Region": "Antarctic", "Tally": 148, "LakeNum": "Antarctic148", "Name": null, "Lat": -78.584, "Lon": 104.996 }, "geometry": { "type": "Point", "coordinates": [ 104.996, -78.584 ] } },
{ "type": "Feature", "properties": { "xID": 149, "Region": "Antarctic", "Tally": 149, "LakeNum": "Antarctic149", "Name": null, "Lat": -78.534, "Lon": 105.586 }, "geometry": { "type": "Point", "coordinates": [ 105.586, -78.534 ] } },
{ "type": "Feature", "properties": { "xID": 150, "Region": "Antarctic", "Tally": 150, "LakeNum": "Antarctic150", "Name": "Komsomolskoe Subglacial lake", "Lat": -73.618, "Lon": 97.286 }, "geometry": { "type": "Point", "coordinates": [ 97.286, -73.618 ] } },
{ "type": "Feature", "properties": { "xID": 151, "Region": "Antarctic", "Tally": 151, "LakeNum": "Antarctic151", "Name": "Pionerskoe Subglacial Lake", "Lat": -69.746, "Lon": 95.537 }, "geometry": { "type": "Point", "coordinates": [ 95.537, -69.746 ] } },
{ "type": "Feature", "properties": { "xID": 152, "Region": "Antarctic", "Tally": 152, "LakeNum": "Antarctic152", "Name": "WLK-4", "Lat": -77.421, "Lon": 150.11 }, "geometry": { "type": "Point", "coordinates": [ 150.11, -77.421 ] } },
{ "type": "Feature", "properties": { "xID": 153, "Region": "Antarctic", "Tally": 153, "LakeNum": "Antarctic153", "Name": "WLK-5", "Lat": -76.875, "Lon": 148.933 }, "geometry": { "type": "Point", "coordinates": [ 148.933, -76.875 ] } },
{ "type": "Feature", "properties": { "xID": 154, "Region": "Antarctic", "Tally": 154, "LakeNum": "Antarctic154", "Name": "WLK-7", "Lat": -77.162, "Lon": 153.715 }, "geometry": { "type": "Point", "coordinates": [ 153.715, -77.162 ] } },
{ "type": "Feature", "properties": { "xID": 155, "Region": "Antarctic", "Tally": 155, "LakeNum": "Antarctic155", "Name": "WLK-8", "Lat": -76.999, "Lon": 150.945 }, "geometry": { "type": "Point", "coordinates": [ 150.945, -76.999 ] } },
{ "type": "Feature", "properties": { "xID": 156, "Region": "Antarctic", "Tally": 156, "LakeNum": "Antarctic156", "Name": "WLK-9", "Lat": -77.189, "Lon": 150.02 }, "geometry": { "type": "Point", "coordinates": [ 150.02, -77.189 ] } },
{ "type": "Feature", "properties": { "xID": 157, "Region": "Antarctic", "Tally": 157, "LakeNum": "Antarctic157", "Name": "WLK-10", "Lat": -76.877, "Lon": 150.206 }, "geometry": { "type": "Point", "coordinates": [ 150.206, -76.877 ] } },
{ "type": "Feature", "properties": { "xID": 158, "Region": "Antarctic", "Tally": 158, "LakeNum": "Antarctic158", "Name": "WLK-11", "Lat": -77.32, "Lon": 147.754 }, "geometry": { "type": "Point", "coordinates": [ 147.754, -77.32 ] } },
{ "type": "Feature", "properties": { "xID": 159, "Region": "Antarctic", "Tally": 159, "LakeNum": "Antarctic159", "Name": "WLK-13", "Lat": -75.764, "Lon": 139.042 }, "geometry": { "type": "Point", "coordinates": [ 139.042, -75.764 ] } },
{ "type": "Feature", "properties": { "xID": 160, "Region": "Antarctic", "Tally": 160, "LakeNum": "Antarctic160", "Name": "Horseshoe Lake (WLK-15)", "Lat": -75.226, "Lon": 126.59 }, "geometry": { "type": "Point", "coordinates": [ 126.59, -75.226 ] } },
{ "type": "Feature", "properties": { "xID": 161, "Region": "Antarctic", "Tally": 161, "LakeNum": "Antarctic161", "Name": "WLK-16", "Lat": -74.566, "Lon": 126.283 }, "geometry": { "type": "Point", "coordinates": [ 126.283, -74.566 ] } },
{ "type": "Feature", "properties": { "xID": 162, "Region": "Antarctic", "Tally": 162, "LakeNum": "Antarctic162", "Name": "WLK-18", "Lat": -74.889, "Lon": 127.562 }, "geometry": { "type": "Point", "coordinates": [ 127.562, -74.889 ] } },
{ "type": "Feature", "properties": { "xID": 163, "Region": "Antarctic", "Tally": 163, "LakeNum": "Antarctic163", "Name": "WLK-19", "Lat": -76.024, "Lon": 137.347 }, "geometry": { "type": "Point", "coordinates": [ 137.347, -76.024 ] } },
{ "type": "Feature", "properties": { "xID": 164, "Region": "Antarctic", "Tally": 164, "LakeNum": "Antarctic164", "Name": "WLK-21", "Lat": -75.429, "Lon": 126.836 }, "geometry": { "type": "Point", "coordinates": [ 126.836, -75.429 ] } },
{ "type": "Feature", "properties": { "xID": 165, "Region": "Antarctic", "Tally": 165, "LakeNum": "Antarctic165", "Name": "WLK-22", "Lat": -76.235, "Lon": 136.879 }, "geometry": { "type": "Point", "coordinates": [ 136.879, -76.235 ] } },
{ "type": "Feature", "properties": { "xID": 166, "Region": "Antarctic", "Tally": 166, "LakeNum": "Antarctic166", "Name": "WLK-23", "Lat": -76.125, "Lon": 137.334 }, "geometry": { "type": "Point", "coordinates": [ 137.334, -76.125 ] } },
{ "type": "Feature", "properties": { "xID": 167, "Region": "Antarctic", "Tally": 167, "LakeNum": "Antarctic167", "Name": "WLK-26", "Lat": -76.0, "Lon": 132.375 }, "geometry": { "type": "Point", "coordinates": [ 132.375, -76.0 ] } },
{ "type": "Feature", "properties": { "xID": 168, "Region": "Antarctic", "Tally": 168, "LakeNum": "Antarctic168", "Name": "WLK-27", "Lat": -75.653, "Lon": 135.747 }, "geometry": { "type": "Point", "coordinates": [ 135.747, -75.653 ] } },
{ "type": "Feature", "properties": { "xID": 169, "Region": "Antarctic", "Tally": 169, "LakeNum": "Antarctic169", "Name": "WLK-28", "Lat": -76.368, "Lon": 137.947 }, "geometry": { "type": "Point", "coordinates": [ 137.947, -76.368 ] } },
{ "type": "Feature", "properties": { "xID": 170, "Region": "Antarctic", "Tally": 170, "LakeNum": "Antarctic170", "Name": "WLK-29", "Lat": -76.153, "Lon": 143.814 }, "geometry": { "type": "Point", "coordinates": [ 143.814, -76.153 ] } },
{ "type": "Feature", "properties": { "xID": 171, "Region": "Antarctic", "Tally": 171, "LakeNum": "Antarctic171", "Name": "WLK-30", "Lat": -76.486, "Lon": 146.037 }, "geometry": { "type": "Point", "coordinates": [ 146.037, -76.486 ] } },
{ "type": "Feature", "properties": { "xID": 172, "Region": "Antarctic", "Tally": 172, "LakeNum": "Antarctic172", "Name": "WLK-31", "Lat": -76.572, "Lon": 138.745 }, "geometry": { "type": "Point", "coordinates": [ 138.745, -76.572 ] } },
{ "type": "Feature", "properties": { "xID": 173, "Region": "Antarctic", "Tally": 173, "LakeNum": "Antarctic173", "Name": "WLK-32", "Lat": -76.586, "Lon": 138.457 }, "geometry": { "type": "Point", "coordinates": [ 138.457, -76.586 ] } },
{ "type": "Feature", "properties": { "xID": 174, "Region": "Antarctic", "Tally": 174, "LakeNum": "Antarctic174", "Name": "WLK-33", "Lat": -77.292, "Lon": 147.243 }, "geometry": { "type": "Point", "coordinates": [ 147.243, -77.292 ] } },
{ "type": "Feature", "properties": { "xID": 175, "Region": "Antarctic", "Tally": 175, "LakeNum": "Antarctic175", "Name": "WLK-34", "Lat": -76.796, "Lon": 148.3 }, "geometry": { "type": "Point", "coordinates": [ 148.3, -76.796 ] } },
{ "type": "Feature", "properties": { "xID": 176, "Region": "Antarctic", "Tally": 176, "LakeNum": "Antarctic176", "Name": "WLK-35", "Lat": -76.672, "Lon": 150.141 }, "geometry": { "type": "Point", "coordinates": [ 150.141, -76.672 ] } },
{ "type": "Feature", "properties": { "xID": 177, "Region": "Antarctic", "Tally": 177, "LakeNum": "Antarctic177", "Name": "WLK-36", "Lat": -76.99, "Lon": 149.679 }, "geometry": { "type": "Point", "coordinates": [ 149.679, -76.99 ] } },
{ "type": "Feature", "properties": { "xID": 178, "Region": "Antarctic", "Tally": 178, "LakeNum": "Antarctic178", "Name": "WLK-37", "Lat": -76.492, "Lon": 150.473 }, "geometry": { "type": "Point", "coordinates": [ 150.473, -76.492 ] } },
{ "type": "Feature", "properties": { "xID": 179, "Region": "Antarctic", "Tally": 179, "LakeNum": "Antarctic179", "Name": "WLK-38", "Lat": -77.084, "Lon": 150.611 }, "geometry": { "type": "Point", "coordinates": [ 150.611, -77.084 ] } },
{ "type": "Feature", "properties": { "xID": 180, "Region": "Antarctic", "Tally": 180, "LakeNum": "Antarctic180", "Name": "WLK-39", "Lat": -76.902, "Lon": 150.917 }, "geometry": { "type": "Point", "coordinates": [ 150.917, -76.902 ] } },
{ "type": "Feature", "properties": { "xID": 181, "Region": "Antarctic", "Tally": 181, "LakeNum": "Antarctic181", "Name": "WLK-40", "Lat": -77.278, "Lon": 150.925 }, "geometry": { "type": "Point", "coordinates": [ 150.925, -77.278 ] } },
{ "type": "Feature", "properties": { "xID": 182, "Region": "Antarctic", "Tally": 182, "LakeNum": "Antarctic182", "Name": "WLK-41", "Lat": -77.123, "Lon": 151.785 }, "geometry": { "type": "Point", "coordinates": [ 151.785, -77.123 ] } },
{ "type": "Feature", "properties": { "xID": 183, "Region": "Antarctic", "Tally": 183, "LakeNum": "Antarctic183", "Name": "WLK-42", "Lat": -77.307, "Lon": 152.49 }, "geometry": { "type": "Point", "coordinates": [ 152.49, -77.307 ] } },
{ "type": "Feature", "properties": { "xID": 184, "Region": "Antarctic", "Tally": 184, "LakeNum": "Antarctic184", "Name": "LVS-1", "Lat": -75.605, "Lon": 119.23 }, "geometry": { "type": "Point", "coordinates": [ 119.23, -75.605 ] } },
{ "type": "Feature", "properties": { "xID": 185, "Region": "Antarctic", "Tally": 185, "LakeNum": "Antarctic185", "Name": "LVS-2", "Lat": -78.661, "Lon": 89.797 }, "geometry": { "type": "Point", "coordinates": [ 89.797, -78.661 ] } },
{ "type": "Feature", "properties": { "xID": 186, "Region": "Antarctic", "Tally": 186, "LakeNum": "Antarctic186", "Name": "LVS-3", "Lat": -75.708, "Lon": 118.711 }, "geometry": { "type": "Point", "coordinates": [ 118.711, -75.708 ] } },
{ "type": "Feature", "properties": { "xID": 187, "Region": "Antarctic", "Tally": 187, "LakeNum": "Antarctic187", "Name": "LVS-4", "Lat": -77.46, "Lon": 103.322 }, "geometry": { "type": "Point", "coordinates": [ 103.322, -77.46 ] } },
{ "type": "Feature", "properties": { "xID": 188, "Region": "Antarctic", "Tally": 188, "LakeNum": "Antarctic188", "Name": "LVS-5", "Lat": -77.682, "Lon": 103.3 }, "geometry": { "type": "Point", "coordinates": [ 103.3, -77.682 ] } },
{ "type": "Feature", "properties": { "xID": 189, "Region": "Antarctic", "Tally": 189, "LakeNum": "Antarctic189", "Name": "LVS-6", "Lat": -78.022, "Lon": 108.158 }, "geometry": { "type": "Point", "coordinates": [ 108.158, -78.022 ] } },
{ "type": "Feature", "properties": { "xID": 190, "Region": "Antarctic", "Tally": 190, "LakeNum": "Antarctic190", "Name": "LVS-14", "Lat": -77.063, "Lon": 102.101 }, "geometry": { "type": "Point", "coordinates": [ 102.101, -77.063 ] } },
{ "type": "Feature", "properties": { "xID": 191, "Region": "Antarctic", "Tally": 191, "LakeNum": "Antarctic191", "Name": "PPT-1", "Lat": -89.756, "Lon": -143.826 }, "geometry": { "type": "Point", "coordinates": [ -143.826, -89.756 ] } },
{ "type": "Feature", "properties": { "xID": 192, "Region": "Antarctic", "Tally": 192, "LakeNum": "Antarctic192", "Name": "PPT-2", "Lat": -88.913, "Lon": -120.388 }, "geometry": { "type": "Point", "coordinates": [ -120.388, -88.913 ] } },
{ "type": "Feature", "properties": { "xID": 193, "Region": "Antarctic", "Tally": 193, "LakeNum": "Antarctic193", "Name": "PPT-3", "Lat": -89.853, "Lon": -86.102 }, "geometry": { "type": "Point", "coordinates": [ -86.102, -89.853 ] } },
{ "type": "Feature", "properties": { "xID": 194, "Region": "Antarctic", "Tally": 194, "LakeNum": "Antarctic194", "Name": "PPT-4", "Lat": -85.218, "Lon": -150.462 }, "geometry": { "type": "Point", "coordinates": [ -150.462, -85.218 ] } },
{ "type": "Feature", "properties": { "xID": 195, "Region": "Antarctic", "Tally": 195, "LakeNum": "Antarctic195", "Name": "PPT-6", "Lat": -85.16, "Lon": -149.74 }, "geometry": { "type": "Point", "coordinates": [ -149.74, -85.16 ] } },
{ "type": "Feature", "properties": { "xID": 196, "Region": "Antarctic", "Tally": 196, "LakeNum": "Antarctic196", "Name": "PPT-7", "Lat": -85.078, "Lon": -144.784 }, "geometry": { "type": "Point", "coordinates": [ -144.784, -85.078 ] } },
{ "type": "Feature", "properties": { "xID": 197, "Region": "Antarctic", "Tally": 197, "LakeNum": "Antarctic197", "Name": "PPT-8", "Lat": -84.974, "Lon": -141.811 }, "geometry": { "type": "Point", "coordinates": [ -141.811, -84.974 ] } },
{ "type": "Feature", "properties": { "xID": 198, "Region": "Antarctic", "Tally": 198, "LakeNum": "Antarctic198", "Name": "PPT-9", "Lat": -84.9, "Lon": -150.786 }, "geometry": { "type": "Point", "coordinates": [ -150.786, -84.9 ] } },
{ "type": "Feature", "properties": { "xID": 199, "Region": "Antarctic", "Tally": 199, "LakeNum": "Antarctic199", "Name": "PPT-11", "Lat": -84.75, "Lon": -150.001 }, "geometry": { "type": "Point", "coordinates": [ -150.001, -84.75 ] } },
{ "type": "Feature", "properties": { "xID": 200, "Region": "Antarctic", "Tally": 200, "LakeNum": "Antarctic200", "Name": "PPT-12", "Lat": -89.898, "Lon": 30.038 }, "geometry": { "type": "Point", "coordinates": [ 30.038, -89.898 ] } },
{ "type": "Feature", "properties": { "xID": 201, "Region": "Antarctic", "Tally": 201, "LakeNum": "Antarctic201", "Name": "PPT-15", "Lat": -84.873, "Lon": -144.123 }, "geometry": { "type": "Point", "coordinates": [ -144.123, -84.873 ] } },
{ "type": "Feature", "properties": { "xID": 202, "Region": "Antarctic", "Tally": 202, "LakeNum": "Antarctic202", "Name": "PPT-16             (Lake Mercer)", "Lat": -84.661, "Lon": -149.677 }, "geometry": { "type": "Point", "coordinates": [ -149.677, -84.661 ] } },
{ "type": "Feature", "properties": { "xID": 203, "Region": "Antarctic", "Tally": 203, "LakeNum": "Antarctic203", "Name": "PPT-17", "Lat": -89.482, "Lon": -13.766 }, "geometry": { "type": "Point", "coordinates": [ -13.766, -89.482 ] } },
{ "type": "Feature", "properties": { "xID": 204, "Region": "Antarctic", "Tally": 204, "LakeNum": "Antarctic204", "Name": "PPT-18", "Lat": -88.471, "Lon": 2.279 }, "geometry": { "type": "Point", "coordinates": [ 2.279, -88.471 ] } },
{ "type": "Feature", "properties": { "xID": 205, "Region": "Antarctic", "Tally": 205, "LakeNum": "Antarctic205", "Name": "PPT-19", "Lat": -89.21, "Lon": -150.009 }, "geometry": { "type": "Point", "coordinates": [ -150.009, -89.21 ] } },
{ "type": "Feature", "properties": { "xID": 206, "Region": "Antarctic", "Tally": 206, "LakeNum": "Antarctic206", "Name": "PPT-20", "Lat": -88.925, "Lon": -149.244 }, "geometry": { "type": "Point", "coordinates": [ -149.244, -88.925 ] } },
{ "type": "Feature", "properties": { "xID": 207, "Region": "Antarctic", "Tally": 207, "LakeNum": "Antarctic207", "Name": "PPT-21", "Lat": -89.415, "Lon": -141.194 }, "geometry": { "type": "Point", "coordinates": [ -141.194, -89.415 ] } },
{ "type": "Feature", "properties": { "xID": 208, "Region": "Antarctic", "Tally": 208, "LakeNum": "Antarctic208", "Name": "PPT-22", "Lat": -88.312, "Lon": -140.85 }, "geometry": { "type": "Point", "coordinates": [ -140.85, -88.312 ] } },
{ "type": "Feature", "properties": { "xID": 209, "Region": "Antarctic", "Tally": 209, "LakeNum": "Antarctic209", "Name": "PPT-23", "Lat": -88.486, "Lon": -139.78 }, "geometry": { "type": "Point", "coordinates": [ -139.78, -88.486 ] } },
{ "type": "Feature", "properties": { "xID": 210, "Region": "Antarctic", "Tally": 210, "LakeNum": "Antarctic210", "Name": "PPT-25", "Lat": -89.571, "Lon": -111.223 }, "geometry": { "type": "Point", "coordinates": [ -111.223, -89.571 ] } },
{ "type": "Feature", "properties": { "xID": 211, "Region": "Antarctic", "Tally": 211, "LakeNum": "Antarctic211", "Name": "PPT-26", "Lat": -89.332, "Lon": -126.286 }, "geometry": { "type": "Point", "coordinates": [ -126.286, -89.332 ] } },
{ "type": "Feature", "properties": { "xID": 212, "Region": "Antarctic", "Tally": 212, "LakeNum": "Antarctic212", "Name": "PPT-28", "Lat": -89.613, "Lon": -103.871 }, "geometry": { "type": "Point", "coordinates": [ -103.871, -89.613 ] } },
{ "type": "Feature", "properties": { "xID": 213, "Region": "Antarctic", "Tally": 213, "LakeNum": "Antarctic213", "Name": "PPT-29", "Lat": -89.427, "Lon": -21.356 }, "geometry": { "type": "Point", "coordinates": [ -21.356, -89.427 ] } },
{ "type": "Feature", "properties": { "xID": 214, "Region": "Antarctic", "Tally": 214, "LakeNum": "Antarctic214", "Name": "PPT-30", "Lat": -89.453, "Lon": -49.283 }, "geometry": { "type": "Point", "coordinates": [ -49.283, -89.453 ] } },
{ "type": "Feature", "properties": { "xID": 215, "Region": "Antarctic", "Tally": 215, "LakeNum": "Antarctic215", "Name": "PPT-31", "Lat": -88.505, "Lon": -128.949 }, "geometry": { "type": "Point", "coordinates": [ -128.949, -88.505 ] } },
{ "type": "Feature", "properties": { "xID": 216, "Region": "Antarctic", "Tally": 216, "LakeNum": "Antarctic216", "Name": "PPT-32", "Lat": -89.338, "Lon": -78.705 }, "geometry": { "type": "Point", "coordinates": [ -78.705, -89.338 ] } },
{ "type": "Feature", "properties": { "xID": 217, "Region": "Antarctic", "Tally": 217, "LakeNum": "Antarctic217", "Name": "PPT-33", "Lat": -84.774, "Lon": -143.117 }, "geometry": { "type": "Point", "coordinates": [ -143.117, -84.774 ] } },
{ "type": "Feature", "properties": { "xID": 218, "Region": "Antarctic", "Tally": 218, "LakeNum": "Antarctic218", "Name": "PPT-35", "Lat": -88.259, "Lon": 7.605 }, "geometry": { "type": "Point", "coordinates": [ 7.605, -88.259 ] } },
{ "type": "Feature", "properties": { "xID": 219, "Region": "Antarctic", "Tally": 219, "LakeNum": "Antarctic219", "Name": "PPT-36", "Lat": -89.322, "Lon": -83.337 }, "geometry": { "type": "Point", "coordinates": [ -83.337, -89.322 ] } },
{ "type": "Feature", "properties": { "xID": 220, "Region": "Antarctic", "Tally": 220, "LakeNum": "Antarctic220", "Name": "PPT-37", "Lat": -89.245, "Lon": -58.47 }, "geometry": { "type": "Point", "coordinates": [ -58.47, -89.245 ] } },
{ "type": "Feature", "properties": { "xID": 221, "Region": "Antarctic", "Tally": 221, "LakeNum": "Antarctic221", "Name": "PPT-38", "Lat": -88.964, "Lon": -13.713 }, "geometry": { "type": "Point", "coordinates": [ -13.713, -88.964 ] } },
{ "type": "Feature", "properties": { "xID": 222, "Region": "Antarctic", "Tally": 222, "LakeNum": "Antarctic222", "Name": "PPT-39", "Lat": -89.169, "Lon": -78.861 }, "geometry": { "type": "Point", "coordinates": [ -78.861, -89.169 ] } },
{ "type": "Feature", "properties": { "xID": 223, "Region": "Antarctic", "Tally": 223, "LakeNum": "Antarctic223", "Name": "PPT-40", "Lat": -88.413, "Lon": -117.809 }, "geometry": { "type": "Point", "coordinates": [ -117.809, -88.413 ] } },
{ "type": "Feature", "properties": { "xID": 224, "Region": "Antarctic", "Tally": 224, "LakeNum": "Antarctic224", "Name": "PPT-41", "Lat": -88.609, "Lon": -110.585 }, "geometry": { "type": "Point", "coordinates": [ -110.585, -88.609 ] } },
{ "type": "Feature", "properties": { "xID": 225, "Region": "Antarctic", "Tally": 225, "LakeNum": "Antarctic225", "Name": "PPT-42", "Lat": -89.045, "Lon": -80.295 }, "geometry": { "type": "Point", "coordinates": [ -80.295, -89.045 ] } },
{ "type": "Feature", "properties": { "xID": 226, "Region": "Antarctic", "Tally": 226, "LakeNum": "Antarctic226", "Name": "PPT-43", "Lat": -88.36, "Lon": -116.897 }, "geometry": { "type": "Point", "coordinates": [ -116.897, -88.36 ] } },
{ "type": "Feature", "properties": { "xID": 227, "Region": "Antarctic", "Tally": 227, "LakeNum": "Antarctic227", "Name": "PPT-44", "Lat": -89.036, "Lon": -43.83 }, "geometry": { "type": "Point", "coordinates": [ -43.83, -89.036 ] } },
{ "type": "Feature", "properties": { "xID": 228, "Region": "Antarctic", "Tally": 228, "LakeNum": "Antarctic228", "Name": "Recovery A", "Lat": -82.4, "Lon": 14.28 }, "geometry": { "type": "Point", "coordinates": [ 14.28, -82.4 ] } },
{ "type": "Feature", "properties": { "xID": 229, "Region": "Antarctic", "Tally": 229, "LakeNum": "Antarctic229", "Name": "Recovery B", "Lat": -82.85, "Lon": 18.13 }, "geometry": { "type": "Point", "coordinates": [ 18.13, -82.85 ] } },
{ "type": "Feature", "properties": { "xID": 230, "Region": "Antarctic", "Tally": 230, "LakeNum": "Antarctic230", "Name": "Recovery C", "Lat": -84.31, "Lon": 21.37 }, "geometry": { "type": "Point", "coordinates": [ 21.37, -84.31 ] } },
{ "type": "Feature", "properties": { "xID": 231, "Region": "Antarctic", "Tally": 231, "LakeNum": "Antarctic231", "Name": "Recovery D", "Lat": -84.99, "Lon": 21.61 }, "geometry": { "type": "Point", "coordinates": [ 21.61, -84.99 ] } },
{ "type": "Feature", "properties": { "xID": 232, "Region": "Antarctic", "Tally": 232, "LakeNum": "Antarctic232", "Name": "Mercer1", "Lat": -84.602, "Lon": 205.809 }, "geometry": { "type": "Point", "coordinates": [ 205.809, -84.602 ] } },
{ "type": "Feature", "properties": { "xID": 233, "Region": "Antarctic", "Tally": 233, "LakeNum": "Antarctic233", "Name": "Whillans1          (Lake Engelhardt)", "Lat": -83.731, "Lon": 202.581 }, "geometry": { "type": "Point", "coordinates": [ 202.581, -83.731 ] } },
{ "type": "Feature", "properties": { "xID": 234, "Region": "Antarctic", "Tally": 234, "LakeNum": "Antarctic234", "Name": "Whillans2a", "Lat": -84.035, "Lon": 199.729 }, "geometry": { "type": "Point", "coordinates": [ 199.729, -84.035 ] } },
{ "type": "Feature", "properties": { "xID": 235, "Region": "Antarctic", "Tally": 235, "LakeNum": "Antarctic235", "Name": "Whillans2b", "Lat": -84.343, "Lon": 201.804 }, "geometry": { "type": "Point", "coordinates": [ 201.804, -84.343 ] } },
{ "type": "Feature", "properties": { "xID": 236, "Region": "Antarctic", "Tally": 236, "LakeNum": "Antarctic236", "Name": "Whillans3          (Lake Whillans)", "Lat": -84.24, "Lon": 206.306 }, "geometry": { "type": "Point", "coordinates": [ 206.306, -84.24 ] } },
{ "type": "Feature", "properties": { "xID": 237, "Region": "Antarctic", "Tally": 237, "LakeNum": "Antarctic237", "Name": "Whillans4          (Lake Conway)", "Lat": -84.374, "Lon": 211.281 }, "geometry": { "type": "Point", "coordinates": [ 211.281, -84.374 ] } },
{ "type": "Feature", "properties": { "xID": 238, "Region": "Antarctic", "Tally": 326, "LakeNum": "Antarctic326", "Name": "MacAyeal1\/Mac1", "Lat": -79.95, "Lon": 214.639 }, "geometry": { "type": "Point", "coordinates": [ 214.639, -79.95 ] } },
{ "type": "Feature", "properties": { "xID": 239, "Region": "Antarctic", "Tally": 327, "LakeNum": "Antarctic327", "Name": "MacAyeal2\/Mac2", "Lat": -79.833, "Lon": 215.922 }, "geometry": { "type": "Point", "coordinates": [ 215.922, -79.833 ] } },
{ "type": "Feature", "properties": { "xID": 240, "Region": "Antarctic", "Tally": 328, "LakeNum": "Antarctic328", "Name": "MacAyeal4", "Lat": -78.676, "Lon": 227.339 }, "geometry": { "type": "Point", "coordinates": [ 227.339, -78.676 ] } },
{ "type": "Feature", "properties": { "xID": 241, "Region": "Antarctic", "Tally": 362, "LakeNum": "Antarctic362", "Name": "Mac3", "Lat": -80.017, "Lon": -142.813 }, "geometry": { "type": "Point", "coordinates": [ -142.813, -80.017 ] } },
{ "type": "Feature", "properties": { "xID": 242, "Region": "Antarctic", "Tally": 363, "LakeNum": "Antarctic363", "Name": "Mac4", "Lat": -79.736, "Lon": -139.0 }, "geometry": { "type": "Point", "coordinates": [ -139.0, -79.736 ] } },
{ "type": "Feature", "properties": { "xID": 243, "Region": "Antarctic", "Tally": 364, "LakeNum": "Antarctic364", "Name": "Mac5", "Lat": -79.636, "Lon": 220.891 }, "geometry": { "type": "Point", "coordinates": [ 220.891, -79.636 ] } },
{ "type": "Feature", "properties": { "xID": 244, "Region": "Antarctic", "Tally": 238, "LakeNum": "Antarctic238", "Name": "Byrd1", "Lat": -81.026, "Lon": 148.302 }, "geometry": { "type": "Point", "coordinates": [ 148.302, -81.026 ] } },
{ "type": "Feature", "properties": { "xID": 245, "Region": "Antarctic", "Tally": 239, "LakeNum": "Antarctic239", "Name": "Byrd2", "Lat": -80.684, "Lon": 146.887 }, "geometry": { "type": "Point", "coordinates": [ 146.887, -80.684 ] } },
{ "type": "Feature", "properties": { "xID": 246, "Region": "Antarctic", "Tally": 240, "LakeNum": "Antarctic240", "Name": "ITL-19", "Lat": -75.03, "Lon": 121.56 }, "geometry": { "type": "Point", "coordinates": [ 121.56, -75.03 ] } },
{ "type": "Feature", "properties": { "xID": 247, "Region": "Antarctic", "Tally": 241, "LakeNum": "Antarctic241", "Name": "ITL-20", "Lat": -75.06, "Lon": 119.85 }, "geometry": { "type": "Point", "coordinates": [ 119.85, -75.06 ] } },
{ "type": "Feature", "properties": { "xID": 248, "Region": "Antarctic", "Tally": 242, "LakeNum": "Antarctic242", "Name": "ITL-21", "Lat": -74.85, "Lon": 121.44 }, "geometry": { "type": "Point", "coordinates": [ 121.44, -74.85 ] } },
{ "type": "Feature", "properties": { "xID": 249, "Region": "Antarctic", "Tally": 243, "LakeNum": "Antarctic243", "Name": "ITL-22", "Lat": -75.02, "Lon": 122.17 }, "geometry": { "type": "Point", "coordinates": [ 122.17, -75.02 ] } },
{ "type": "Feature", "properties": { "xID": 250, "Region": "Antarctic", "Tally": 244, "LakeNum": "Antarctic244", "Name": "ITL-23", "Lat": -74.07, "Lon": 120.15 }, "geometry": { "type": "Point", "coordinates": [ 120.15, -74.07 ] } },
{ "type": "Feature", "properties": { "xID": 251, "Region": "Antarctic", "Tally": 245, "LakeNum": "Antarctic245", "Name": "ITL-24", "Lat": -76.171, "Lon": 128.0 }, "geometry": { "type": "Point", "coordinates": [ 128.0, -76.171 ] } },
{ "type": "Feature", "properties": { "xID": 252, "Region": "Antarctic", "Tally": 246, "LakeNum": "Antarctic246", "Name": "ITL-25", "Lat": -76.147, "Lon": 127.189 }, "geometry": { "type": "Point", "coordinates": [ 127.189, -76.147 ] } },
{ "type": "Feature", "properties": { "xID": 253, "Region": "Antarctic", "Tally": 247, "LakeNum": "Antarctic247", "Name": "ITL-26", "Lat": -76.131, "Lon": 126.69 }, "geometry": { "type": "Point", "coordinates": [ 126.69, -76.131 ] } },
{ "type": "Feature", "properties": { "xID": 254, "Region": "Antarctic", "Tally": 248, "LakeNum": "Antarctic248", "Name": "ITL-27", "Lat": -76.127, "Lon": 126.559 }, "geometry": { "type": "Point", "coordinates": [ 126.559, -76.127 ] } },
{ "type": "Feature", "properties": { "xID": 255, "Region": "Antarctic", "Tally": 249, "LakeNum": "Antarctic249", "Name": "ITL-28", "Lat": -76.071, "Lon": 125.058 }, "geometry": { "type": "Point", "coordinates": [ 125.058, -76.071 ] } },
{ "type": "Feature", "properties": { "xID": 256, "Region": "Antarctic", "Tally": 250, "LakeNum": "Antarctic250", "Name": "Academy1", "Lat": -84.135, "Lon": 298.663 }, "geometry": { "type": "Point", "coordinates": [ 298.663, -84.135 ] } },
{ "type": "Feature", "properties": { "xID": 257, "Region": "Antarctic", "Tally": 251, "LakeNum": "Antarctic251", "Name": "Academy2", "Lat": -84.536, "Lon": 302.555 }, "geometry": { "type": "Point", "coordinates": [ 302.555, -84.536 ] } },
{ "type": "Feature", "properties": { "xID": 258, "Region": "Antarctic", "Tally": 252, "LakeNum": "Antarctic252", "Name": "Academy3", "Lat": -84.608, "Lon": 300.918 }, "geometry": { "type": "Point", "coordinates": [ 300.918, -84.608 ] } },
{ "type": "Feature", "properties": { "xID": 259, "Region": "Antarctic", "Tally": 253, "LakeNum": "Antarctic253", "Name": "Academy4", "Lat": -84.81, "Lon": 304.27 }, "geometry": { "type": "Point", "coordinates": [ 304.27, -84.81 ] } },
{ "type": "Feature", "properties": { "xID": 260, "Region": "Antarctic", "Tally": 254, "LakeNum": "Antarctic254", "Name": "Academy5", "Lat": -84.836, "Lon": 306.3 }, "geometry": { "type": "Point", "coordinates": [ 306.3, -84.836 ] } },
{ "type": "Feature", "properties": { "xID": 261, "Region": "Antarctic", "Tally": 255, "LakeNum": "Antarctic255", "Name": "Academy6", "Lat": -85.316, "Lon": 304.782 }, "geometry": { "type": "Point", "coordinates": [ 304.782, -85.316 ] } },
{ "type": "Feature", "properties": { "xID": 262, "Region": "Antarctic", "Tally": 256, "LakeNum": "Antarctic256", "Name": "Academy7", "Lat": -85.565, "Lon": 306.278 }, "geometry": { "type": "Point", "coordinates": [ 306.278, -85.565 ] } },
{ "type": "Feature", "properties": { "xID": 263, "Region": "Antarctic", "Tally": 257, "LakeNum": "Antarctic257", "Name": "Academy8", "Lat": -85.651, "Lon": 307.068 }, "geometry": { "type": "Point", "coordinates": [ 307.068, -85.651 ] } },
{ "type": "Feature", "properties": { "xID": 264, "Region": "Antarctic", "Tally": 258, "LakeNum": "Antarctic258", "Name": "Academy9", "Lat": -85.865, "Lon": 307.769 }, "geometry": { "type": "Point", "coordinates": [ 307.769, -85.865 ] } },
{ "type": "Feature", "properties": { "xID": 265, "Region": "Antarctic", "Tally": 259, "LakeNum": "Antarctic259", "Name": "Academy10", "Lat": -85.768, "Lon": 309.005 }, "geometry": { "type": "Point", "coordinates": [ 309.005, -85.768 ] } },
{ "type": "Feature", "properties": { "xID": 266, "Region": "Antarctic", "Tally": 260, "LakeNum": "Antarctic260", "Name": "Academy11", "Lat": -85.797, "Lon": 311.592 }, "geometry": { "type": "Point", "coordinates": [ 311.592, -85.797 ] } },
{ "type": "Feature", "properties": { "xID": 267, "Region": "Antarctic", "Tally": 261, "LakeNum": "Antarctic261", "Name": "Academy12", "Lat": -85.712, "Lon": 314.625 }, "geometry": { "type": "Point", "coordinates": [ 314.625, -85.712 ] } },
{ "type": "Feature", "properties": { "xID": 268, "Region": "Antarctic", "Tally": 262, "LakeNum": "Antarctic262", "Name": "Academy13", "Lat": -85.644, "Lon": 317.586 }, "geometry": { "type": "Point", "coordinates": [ 317.586, -85.644 ] } },
{ "type": "Feature", "properties": { "xID": 269, "Region": "Antarctic", "Tally": 263, "LakeNum": "Antarctic263", "Name": "Academy14", "Lat": -85.776, "Lon": 320.431 }, "geometry": { "type": "Point", "coordinates": [ 320.431, -85.776 ] } },
{ "type": "Feature", "properties": { "xID": 270, "Region": "Antarctic", "Tally": 264, "LakeNum": "Antarctic264", "Name": "Academy15", "Lat": -86.023, "Lon": 322.313 }, "geometry": { "type": "Point", "coordinates": [ 322.313, -86.023 ] } },
{ "type": "Feature", "properties": { "xID": 271, "Region": "Antarctic", "Tally": 265, "LakeNum": "Antarctic265", "Name": "Academy16", "Lat": -85.992, "Lon": 324.301 }, "geometry": { "type": "Point", "coordinates": [ 324.301, -85.992 ] } },
{ "type": "Feature", "properties": { "xID": 272, "Region": "Antarctic", "Tally": 266, "LakeNum": "Antarctic266", "Name": "Bindschadler1", "Lat": -80.347, "Lon": 228.497 }, "geometry": { "type": "Point", "coordinates": [ 228.497, -80.347 ] } },
{ "type": "Feature", "properties": { "xID": 273, "Region": "Antarctic", "Tally": 267, "LakeNum": "Antarctic267", "Name": "Bindschadler2", "Lat": -79.945, "Lon": 229.804 }, "geometry": { "type": "Point", "coordinates": [ 229.804, -79.945 ] } },
{ "type": "Feature", "properties": { "xID": 274, "Region": "Antarctic", "Tally": 268, "LakeNum": "Antarctic268", "Name": "Bindschadler3", "Lat": -80.027, "Lon": 233.355 }, "geometry": { "type": "Point", "coordinates": [ 233.355, -80.027 ] } },
{ "type": "Feature", "properties": { "xID": 275, "Region": "Antarctic", "Tally": 269, "LakeNum": "Antarctic269", "Name": "Bindschadler4", "Lat": -80.727, "Lon": 234.428 }, "geometry": { "type": "Point", "coordinates": [ 234.428, -80.727 ] } },
{ "type": "Feature", "properties": { "xID": 276, "Region": "Antarctic", "Tally": 270, "LakeNum": "Antarctic270", "Name": "Bindschadler6", "Lat": -80.567, "Lon": 237.372 }, "geometry": { "type": "Point", "coordinates": [ 237.372, -80.567 ] } },
{ "type": "Feature", "properties": { "xID": 277, "Region": "Antarctic", "Tally": 271, "LakeNum": "Antarctic271", "Name": "ByrdS1", "Lat": -80.337, "Lon": 152.188 }, "geometry": { "type": "Point", "coordinates": [ 152.188, -80.337 ] } },
{ "type": "Feature", "properties": { "xID": 278, "Region": "Antarctic", "Tally": 272, "LakeNum": "Antarctic272", "Name": "ByrdS2", "Lat": -80.762, "Lon": 149.534 }, "geometry": { "type": "Point", "coordinates": [ 149.534, -80.762 ] } },
{ "type": "Feature", "properties": { "xID": 279, "Region": "Antarctic", "Tally": 273, "LakeNum": "Antarctic273", "Name": "ByrdS3", "Lat": -81.804, "Lon": 149.61 }, "geometry": { "type": "Point", "coordinates": [ 149.61, -81.804 ] } },
{ "type": "Feature", "properties": { "xID": 280, "Region": "Antarctic", "Tally": 274, "LakeNum": "Antarctic274", "Name": "ByrdS4", "Lat": -80.75, "Lon": 143.711 }, "geometry": { "type": "Point", "coordinates": [ 143.711, -80.75 ] } },
{ "type": "Feature", "properties": { "xID": 281, "Region": "Antarctic", "Tally": 275, "LakeNum": "Antarctic275", "Name": "ByrdS5", "Lat": -80.577, "Lon": 143.378 }, "geometry": { "type": "Point", "coordinates": [ 143.378, -80.577 ] } },
{ "type": "Feature", "properties": { "xID": 282, "Region": "Antarctic", "Tally": 276, "LakeNum": "Antarctic276", "Name": "ByrdS6", "Lat": -80.324, "Lon": 143.659 }, "geometry": { "type": "Point", "coordinates": [ 143.659, -80.324 ] } },
{ "type": "Feature", "properties": { "xID": 283, "Region": "Antarctic", "Tally": 277, "LakeNum": "Antarctic277", "Name": "ByrdS7", "Lat": -80.034, "Lon": 143.739 }, "geometry": { "type": "Point", "coordinates": [ 143.739, -80.034 ] } },
{ "type": "Feature", "properties": { "xID": 284, "Region": "Antarctic", "Tally": 278, "LakeNum": "Antarctic278", "Name": "ByrdS8", "Lat": -80.012, "Lon": 142.407 }, "geometry": { "type": "Point", "coordinates": [ 142.407, -80.012 ] } },
{ "type": "Feature", "properties": { "xID": 285, "Region": "Antarctic", "Tally": 279, "LakeNum": "Antarctic279", "Name": "ByrdS9", "Lat": -81.467, "Lon": 142.305 }, "geometry": { "type": "Point", "coordinates": [ 142.305, -81.467 ] } },
{ "type": "Feature", "properties": { "xID": 286, "Region": "Antarctic", "Tally": 280, "LakeNum": "Antarctic280", "Name": "ByrdS10", "Lat": -81.83, "Lon": 139.028 }, "geometry": { "type": "Point", "coordinates": [ 139.028, -81.83 ] } },
{ "type": "Feature", "properties": { "xID": 287, "Region": "Antarctic", "Tally": 281, "LakeNum": "Antarctic281", "Name": "ByrdS11", "Lat": -81.466, "Lon": 138.588 }, "geometry": { "type": "Point", "coordinates": [ 138.588, -81.466 ] } },
{ "type": "Feature", "properties": { "xID": 288, "Region": "Antarctic", "Tally": 282, "LakeNum": "Antarctic282", "Name": "ByrdS12", "Lat": -80.9, "Lon": 138.237 }, "geometry": { "type": "Point", "coordinates": [ 138.237, -80.9 ] } },
{ "type": "Feature", "properties": { "xID": 289, "Region": "Antarctic", "Tally": 283, "LakeNum": "Antarctic283", "Name": "ByrdS13", "Lat": -78.932, "Lon": 142.828 }, "geometry": { "type": "Point", "coordinates": [ 142.828, -78.932 ] } },
{ "type": "Feature", "properties": { "xID": 290, "Region": "Antarctic", "Tally": 284, "LakeNum": "Antarctic284", "Name": "ByrdS14", "Lat": -78.826, "Lon": 139.785 }, "geometry": { "type": "Point", "coordinates": [ 139.785, -78.826 ] } },
{ "type": "Feature", "properties": { "xID": 291, "Region": "Antarctic", "Tally": 285, "LakeNum": "Antarctic285", "Name": "ByrdS15", "Lat": -78.806, "Lon": 138.957 }, "geometry": { "type": "Point", "coordinates": [ 138.957, -78.806 ] } },
{ "type": "Feature", "properties": { "xID": 292, "Region": "Antarctic", "Tally": 286, "LakeNum": "Antarctic286", "Name": "CookE1", "Lat": -71.872, "Lon": 155.337 }, "geometry": { "type": "Point", "coordinates": [ 155.337, -71.872 ] } },
{ "type": "Feature", "properties": { "xID": 293, "Region": "Antarctic", "Tally": 287, "LakeNum": "Antarctic287", "Name": "CookE2", "Lat": -72.803, "Lon": 155.786 }, "geometry": { "type": "Point", "coordinates": [ 155.786, -72.803 ] } },
{ "type": "Feature", "properties": { "xID": 294, "Region": "Antarctic", "Tally": 288, "LakeNum": "Antarctic288", "Name": "CookW1", "Lat": -69.657, "Lon": 149.712 }, "geometry": { "type": "Point", "coordinates": [ 149.712, -69.657 ] } },
{ "type": "Feature", "properties": { "xID": 295, "Region": "Antarctic", "Tally": 289, "LakeNum": "Antarctic289", "Name": "CookW2", "Lat": -70.839, "Lon": 149.379 }, "geometry": { "type": "Point", "coordinates": [ 149.379, -70.839 ] } },
{ "type": "Feature", "properties": { "xID": 296, "Region": "Antarctic", "Tally": 290, "LakeNum": "Antarctic290", "Name": "David1", "Lat": -75.27, "Lon": 157.213 }, "geometry": { "type": "Point", "coordinates": [ 157.213, -75.27 ] } },
{ "type": "Feature", "properties": { "xID": 297, "Region": "Antarctic", "Tally": 291, "LakeNum": "Antarctic291", "Name": "David2", "Lat": -75.332, "Lon": 155.52 }, "geometry": { "type": "Point", "coordinates": [ 155.52, -75.332 ] } },
{ "type": "Feature", "properties": { "xID": 298, "Region": "Antarctic", "Tally": 292, "LakeNum": "Antarctic292", "Name": "David3", "Lat": -75.24, "Lon": 152.918 }, "geometry": { "type": "Point", "coordinates": [ 152.918, -75.24 ] } },
{ "type": "Feature", "properties": { "xID": 299, "Region": "Antarctic", "Tally": 293, "LakeNum": "Antarctic293", "Name": "David4", "Lat": -75.732, "Lon": 152.25 }, "geometry": { "type": "Point", "coordinates": [ 152.25, -75.732 ] } },
{ "type": "Feature", "properties": { "xID": 300, "Region": "Antarctic", "Tally": 294, "LakeNum": "Antarctic294", "Name": "David5", "Lat": -74.879, "Lon": 152.461 }, "geometry": { "type": "Point", "coordinates": [ 152.461, -74.879 ] } },
{ "type": "Feature", "properties": { "xID": 301, "Region": "Antarctic", "Tally": 295, "LakeNum": "Antarctic295", "Name": "David6", "Lat": -75.391, "Lon": 145.239 }, "geometry": { "type": "Point", "coordinates": [ 145.239, -75.391 ] } },
{ "type": "Feature", "properties": { "xID": 302, "Region": "Antarctic", "Tally": 296, "LakeNum": "Antarctic296", "Name": "EAP1", "Lat": -85.839, "Lon": 140.641 }, "geometry": { "type": "Point", "coordinates": [ 140.641, -85.839 ] } },
{ "type": "Feature", "properties": { "xID": 303, "Region": "Antarctic", "Tally": 297, "LakeNum": "Antarctic297", "Name": "EAP2", "Lat": -85.679, "Lon": 135.484 }, "geometry": { "type": "Point", "coordinates": [ 135.484, -85.679 ] } },
{ "type": "Feature", "properties": { "xID": 304, "Region": "Antarctic", "Tally": 298, "LakeNum": "Antarctic298", "Name": "EAP3", "Lat": -85.902, "Lon": 132.796 }, "geometry": { "type": "Point", "coordinates": [ 132.796, -85.902 ] } },
{ "type": "Feature", "properties": { "xID": 305, "Region": "Antarctic", "Tally": 299, "LakeNum": "Antarctic299", "Name": "EAP4", "Lat": -85.912, "Lon": 128.371 }, "geometry": { "type": "Point", "coordinates": [ 128.371, -85.912 ] } },
{ "type": "Feature", "properties": { "xID": 306, "Region": "Antarctic", "Tally": 300, "LakeNum": "Antarctic300", "Name": "EAP5", "Lat": -85.662, "Lon": 124.417 }, "geometry": { "type": "Point", "coordinates": [ 124.417, -85.662 ] } },
{ "type": "Feature", "properties": { "xID": 307, "Region": "Antarctic", "Tally": 301, "LakeNum": "Antarctic301", "Name": "EAP6", "Lat": -85.489, "Lon": 104.036 }, "geometry": { "type": "Point", "coordinates": [ 104.036, -85.489 ] } },
{ "type": "Feature", "properties": { "xID": 308, "Region": "Antarctic", "Tally": 302, "LakeNum": "Antarctic302", "Name": "EAP7", "Lat": -83.967, "Lon": 122.437 }, "geometry": { "type": "Point", "coordinates": [ 122.437, -83.967 ] } },
{ "type": "Feature", "properties": { "xID": 309, "Region": "Antarctic", "Tally": 303, "LakeNum": "Antarctic303", "Name": "EAP8", "Lat": -75.193, "Lon": 109.854 }, "geometry": { "type": "Point", "coordinates": [ 109.854, -75.193 ] } },
{ "type": "Feature", "properties": { "xID": 310, "Region": "Antarctic", "Tally": 304, "LakeNum": "Antarctic304", "Name": "EAP9", "Lat": -75.808, "Lon": 135.558 }, "geometry": { "type": "Point", "coordinates": [ 135.558, -75.808 ] } },
{ "type": "Feature", "properties": { "xID": 311, "Region": "Antarctic", "Tally": 305, "LakeNum": "Antarctic305", "Name": "Foundation1", "Lat": -84.522, "Lon": 286.338 }, "geometry": { "type": "Point", "coordinates": [ 286.338, -84.522 ] } },
{ "type": "Feature", "properties": { "xID": 312, "Region": "Antarctic", "Tally": 306, "LakeNum": "Antarctic306", "Name": "Foundation2", "Lat": -84.984, "Lon": 286.029 }, "geometry": { "type": "Point", "coordinates": [ 286.029, -84.984 ] } },
{ "type": "Feature", "properties": { "xID": 313, "Region": "Antarctic", "Tally": 307, "LakeNum": "Antarctic307", "Name": "Foundation3", "Lat": -85.258, "Lon": 287.207 }, "geometry": { "type": "Point", "coordinates": [ 287.207, -85.258 ] } },
{ "type": "Feature", "properties": { "xID": 314, "Region": "Antarctic", "Tally": 308, "LakeNum": "Antarctic308", "Name": "InstituteE1", "Lat": -82.13, "Lon": 285.509 }, "geometry": { "type": "Point", "coordinates": [ 285.509, -82.13 ] } },
{ "type": "Feature", "properties": { "xID": 315, "Region": "Antarctic", "Tally": 309, "LakeNum": "Antarctic309", "Name": "InstituteE2", "Lat": -82.625, "Lon": 280.987 }, "geometry": { "type": "Point", "coordinates": [ 280.987, -82.625 ] } },
{ "type": "Feature", "properties": { "xID": 316, "Region": "Antarctic", "Tally": 310, "LakeNum": "Antarctic310", "Name": "InstituteW1", "Lat": -81.401, "Lon": 282.455 }, "geometry": { "type": "Point", "coordinates": [ 282.455, -81.401 ] } },
{ "type": "Feature", "properties": { "xID": 317, "Region": "Antarctic", "Tally": 311, "LakeNum": "Antarctic311", "Name": "InstituteW2", "Lat": -81.628, "Lon": 276.421 }, "geometry": { "type": "Point", "coordinates": [ 276.421, -81.628 ] } },
{ "type": "Feature", "properties": { "xID": 318, "Region": "Antarctic", "Tally": 312, "LakeNum": "Antarctic312", "Name": "Kamb trunk1", "Lat": -81.951, "Lon": 219.598 }, "geometry": { "type": "Point", "coordinates": [ 219.598, -81.951 ] } },
{ "type": "Feature", "properties": { "xID": 319, "Region": "Antarctic", "Tally": 313, "LakeNum": "Antarctic313", "Name": "Kamb1", "Lat": -82.011, "Lon": 228.796 }, "geometry": { "type": "Point", "coordinates": [ 228.796, -82.011 ] } },
{ "type": "Feature", "properties": { "xID": 320, "Region": "Antarctic", "Tally": 314, "LakeNum": "Antarctic314", "Name": "Kamb2", "Lat": -82.185, "Lon": 230.161 }, "geometry": { "type": "Point", "coordinates": [ 230.161, -82.185 ] } },
{ "type": "Feature", "properties": { "xID": 321, "Region": "Antarctic", "Tally": 315, "LakeNum": "Antarctic315", "Name": "Kamb3", "Lat": -81.938, "Lon": 231.403 }, "geometry": { "type": "Point", "coordinates": [ 231.403, -81.938 ] } },
{ "type": "Feature", "properties": { "xID": 322, "Region": "Antarctic", "Tally": 316, "LakeNum": "Antarctic316", "Name": "Kamb4", "Lat": -81.97, "Lon": 232.558 }, "geometry": { "type": "Point", "coordinates": [ 232.558, -81.97 ] } },
{ "type": "Feature", "properties": { "xID": 323, "Region": "Antarctic", "Tally": 317, "LakeNum": "Antarctic317", "Name": "Kamb5", "Lat": -82.274, "Lon": 232.518 }, "geometry": { "type": "Point", "coordinates": [ 232.518, -82.274 ] } },
{ "type": "Feature", "properties": { "xID": 324, "Region": "Antarctic", "Tally": 318, "LakeNum": "Antarctic318", "Name": "Kamb6", "Lat": -82.058, "Lon": 235.659 }, "geometry": { "type": "Point", "coordinates": [ 235.659, -82.058 ] } },
{ "type": "Feature", "properties": { "xID": 325, "Region": "Antarctic", "Tally": 319, "LakeNum": "Antarctic319", "Name": "Kamb7", "Lat": -81.921, "Lon": 236.56 }, "geometry": { "type": "Point", "coordinates": [ 236.56, -81.921 ] } },
{ "type": "Feature", "properties": { "xID": 326, "Region": "Antarctic", "Tally": 320, "LakeNum": "Antarctic320", "Name": "Kamb8", "Lat": -82.376, "Lon": 236.857 }, "geometry": { "type": "Point", "coordinates": [ 236.857, -82.376 ] } },
{ "type": "Feature", "properties": { "xID": 327, "Region": "Antarctic", "Tally": 321, "LakeNum": "Antarctic321", "Name": "Kamb9", "Lat": -82.321, "Lon": 238.371 }, "geometry": { "type": "Point", "coordinates": [ 238.371, -82.321 ] } },
{ "type": "Feature", "properties": { "xID": 328, "Region": "Antarctic", "Tally": 322, "LakeNum": "Antarctic322", "Name": "Kamb11", "Lat": -81.251, "Lon": 239.859 }, "geometry": { "type": "Point", "coordinates": [ 239.859, -81.251 ] } },
{ "type": "Feature", "properties": { "xID": 329, "Region": "Antarctic", "Tally": 323, "LakeNum": "Antarctic323", "Name": "Kamb12", "Lat": -80.854, "Lon": 242.925 }, "geometry": { "type": "Point", "coordinates": [ 242.925, -80.854 ] } },
{ "type": "Feature", "properties": { "xID": 330, "Region": "Antarctic", "Tally": 324, "LakeNum": "Antarctic324", "Name": "Lambert1", "Lat": -74.0, "Lon": 68.276 }, "geometry": { "type": "Point", "coordinates": [ 68.276, -74.0 ] } },
{ "type": "Feature", "properties": { "xID": 331, "Region": "Antarctic", "Tally": 325, "LakeNum": "Antarctic325", "Name": "Lennox-King1", "Lat": -84.773, "Lon": 157.119 }, "geometry": { "type": "Point", "coordinates": [ 157.119, -84.773 ] } },
{ "type": "Feature", "properties": { "xID": 332, "Region": "Antarctic", "Tally": 329, "LakeNum": "Antarctic329", "Name": "Mulock1", "Lat": -78.091, "Lon": 149.108 }, "geometry": { "type": "Point", "coordinates": [ 149.108, -78.091 ] } },
{ "type": "Feature", "properties": { "xID": 333, "Region": "Antarctic", "Tally": 330, "LakeNum": "Antarctic330", "Name": "Ninnis1", "Lat": -70.887, "Lon": 144.274 }, "geometry": { "type": "Point", "coordinates": [ 144.274, -70.887 ] } },
{ "type": "Feature", "properties": { "xID": 334, "Region": "Antarctic", "Tally": 331, "LakeNum": "Antarctic331", "Name": "Nimrod1", "Lat": -83.488, "Lon": 150.276 }, "geometry": { "type": "Point", "coordinates": [ 150.276, -83.488 ] } },
{ "type": "Feature", "properties": { "xID": 335, "Region": "Antarctic", "Tally": 332, "LakeNum": "Antarctic332", "Name": "Nimrod2", "Lat": -84.325, "Lon": 141.004 }, "geometry": { "type": "Point", "coordinates": [ 141.004, -84.325 ] } },
{ "type": "Feature", "properties": { "xID": 336, "Region": "Antarctic", "Tally": 333, "LakeNum": "Antarctic333", "Name": "Raymond1", "Lat": -81.352, "Lon": 231.557 }, "geometry": { "type": "Point", "coordinates": [ 231.557, -81.352 ] } },
{ "type": "Feature", "properties": { "xID": 337, "Region": "Antarctic", "Tally": 334, "LakeNum": "Antarctic334", "Name": "Recovery1", "Lat": -81.148, "Lon": 330.924 }, "geometry": { "type": "Point", "coordinates": [ 330.924, -81.148 ] } },
{ "type": "Feature", "properties": { "xID": 338, "Region": "Antarctic", "Tally": 335, "LakeNum": "Antarctic335", "Name": "Recovery2", "Lat": -81.319, "Lon": 332.83 }, "geometry": { "type": "Point", "coordinates": [ 332.83, -81.319 ] } },
{ "type": "Feature", "properties": { "xID": 339, "Region": "Antarctic", "Tally": 336, "LakeNum": "Antarctic336", "Name": "Recovery3", "Lat": -80.907, "Lon": 335.876 }, "geometry": { "type": "Point", "coordinates": [ 335.876, -80.907 ] } },
{ "type": "Feature", "properties": { "xID": 340, "Region": "Antarctic", "Tally": 337, "LakeNum": "Antarctic337", "Name": "Recovery4", "Lat": -81.324, "Lon": 339.948 }, "geometry": { "type": "Point", "coordinates": [ 339.948, -81.324 ] } },
{ "type": "Feature", "properties": { "xID": 341, "Region": "Antarctic", "Tally": 338, "LakeNum": "Antarctic338", "Name": "Recovery5", "Lat": -81.284, "Lon": 350.392 }, "geometry": { "type": "Point", "coordinates": [ 350.392, -81.284 ] } },
{ "type": "Feature", "properties": { "xID": 342, "Region": "Antarctic", "Tally": 339, "LakeNum": "Antarctic339", "Name": "Recovery6", "Lat": -81.429, "Lon": 352.763 }, "geometry": { "type": "Point", "coordinates": [ 352.763, -81.429 ] } },
{ "type": "Feature", "properties": { "xID": 343, "Region": "Antarctic", "Tally": 340, "LakeNum": "Antarctic340", "Name": "Recovery7", "Lat": -81.644, "Lon": 354.021 }, "geometry": { "type": "Point", "coordinates": [ 354.021, -81.644 ] } },
{ "type": "Feature", "properties": { "xID": 344, "Region": "Antarctic", "Tally": 341, "LakeNum": "Antarctic341", "Name": "Recovery8", "Lat": -81.802, "Lon": 355.878 }, "geometry": { "type": "Point", "coordinates": [ 355.878, -81.802 ] } },
{ "type": "Feature", "properties": { "xID": 345, "Region": "Antarctic", "Tally": 342, "LakeNum": "Antarctic342", "Name": "Recovery9", "Lat": -82.914, "Lon": 2.336 }, "geometry": { "type": "Point", "coordinates": [ 2.336, -82.914 ] } },
{ "type": "Feature", "properties": { "xID": 346, "Region": "Antarctic", "Tally": 343, "LakeNum": "Antarctic343", "Name": "Recovery10", "Lat": -83.503, "Lon": 5.941 }, "geometry": { "type": "Point", "coordinates": [ 5.941, -83.503 ] } },
{ "type": "Feature", "properties": { "xID": 347, "Region": "Antarctic", "Tally": 344, "LakeNum": "Antarctic344", "Name": "Recovery11", "Lat": -81.716, "Lon": 8.417 }, "geometry": { "type": "Point", "coordinates": [ 8.417, -81.716 ] } },
{ "type": "Feature", "properties": { "xID": 348, "Region": "Antarctic", "Tally": 345, "LakeNum": "Antarctic345", "Name": "Rutford1", "Lat": -78.182, "Lon": 275.827 }, "geometry": { "type": "Point", "coordinates": [ 275.827, -78.182 ] } },
{ "type": "Feature", "properties": { "xID": 349, "Region": "Antarctic", "Tally": 346, "LakeNum": "Antarctic346", "Name": "Slessor1", "Lat": -80.037, "Lon": 334.728 }, "geometry": { "type": "Point", "coordinates": [ 334.728, -80.037 ] } },
{ "type": "Feature", "properties": { "xID": 350, "Region": "Antarctic", "Tally": 347, "LakeNum": "Antarctic347", "Name": "Slessor2", "Lat": -79.836, "Lon": 338.437 }, "geometry": { "type": "Point", "coordinates": [ 338.437, -79.836 ] } },
{ "type": "Feature", "properties": { "xID": 351, "Region": "Antarctic", "Tally": 348, "LakeNum": "Antarctic348", "Name": "Slessor3", "Lat": -79.924, "Lon": 338.64 }, "geometry": { "type": "Point", "coordinates": [ 338.64, -79.924 ] } },
{ "type": "Feature", "properties": { "xID": 352, "Region": "Antarctic", "Tally": 349, "LakeNum": "Antarctic349", "Name": "Slessor4", "Lat": -79.336, "Lon": 342.915 }, "geometry": { "type": "Point", "coordinates": [ 342.915, -79.336 ] } },
{ "type": "Feature", "properties": { "xID": 353, "Region": "Antarctic", "Tally": 350, "LakeNum": "Antarctic350", "Name": "Slessor5", "Lat": -79.201, "Lon": 342.961 }, "geometry": { "type": "Point", "coordinates": [ 342.961, -79.201 ] } },
{ "type": "Feature", "properties": { "xID": 354, "Region": "Antarctic", "Tally": 351, "LakeNum": "Antarctic351", "Name": "Slessor6", "Lat": -78.77, "Lon": 345.703 }, "geometry": { "type": "Point", "coordinates": [ 345.703, -78.77 ] } },
{ "type": "Feature", "properties": { "xID": 355, "Region": "Antarctic", "Tally": 352, "LakeNum": "Antarctic352", "Name": "Slessor7", "Lat": -79.25, "Lon": 348.95 }, "geometry": { "type": "Point", "coordinates": [ 348.95, -79.25 ] } },
{ "type": "Feature", "properties": { "xID": 356, "Region": "Antarctic", "Tally": 353, "LakeNum": "Antarctic353", "Name": "Totten1", "Lat": -70.103, "Lon": 107.501 }, "geometry": { "type": "Point", "coordinates": [ 107.501, -70.103 ] } },
{ "type": "Feature", "properties": { "xID": 357, "Region": "Antarctic", "Tally": 354, "LakeNum": "Antarctic354", "Name": "Totten2", "Lat": -70.829, "Lon": 110.511 }, "geometry": { "type": "Point", "coordinates": [ 110.511, -70.829 ] } },
{ "type": "Feature", "properties": { "xID": 358, "Region": "Antarctic", "Tally": 355, "LakeNum": "Antarctic355", "Name": "Vostok1", "Lat": -77.169, "Lon": 106.834 }, "geometry": { "type": "Point", "coordinates": [ 106.834, -77.169 ] } },
{ "type": "Feature", "properties": { "xID": 359, "Region": "Antarctic", "Tally": 356, "LakeNum": "Antarctic356", "Name": "Whillans5", "Lat": -84.091, "Lon": 213.929 }, "geometry": { "type": "Point", "coordinates": [ 213.929, -84.091 ] } },
{ "type": "Feature", "properties": { "xID": 360, "Region": "Antarctic", "Tally": 357, "LakeNum": "Antarctic357", "Name": "Whillans6", "Lat": -83.846, "Lon": 223.086 }, "geometry": { "type": "Point", "coordinates": [ 223.086, -83.846 ] } },
{ "type": "Feature", "properties": { "xID": 361, "Region": "Antarctic", "Tally": 358, "LakeNum": "Antarctic358", "Name": "Whillans7", "Lat": -83.237, "Lon": 226.992 }, "geometry": { "type": "Point", "coordinates": [ 226.992, -83.237 ] } },
{ "type": "Feature", "properties": { "xID": 362, "Region": "Antarctic", "Tally": 359, "LakeNum": "Antarctic359", "Name": "Whillans8", "Lat": -83.504, "Lon": 246.399 }, "geometry": { "type": "Point", "coordinates": [ 246.399, -83.504 ] } },
{ "type": "Feature", "properties": { "xID": 363, "Region": "Antarctic", "Tally": 360, "LakeNum": "Antarctic360", "Name": "Wilkes1", "Lat": -68.812, "Lon": 106.715 }, "geometry": { "type": "Point", "coordinates": [ 106.715, -68.812 ] } },
{ "type": "Feature", "properties": { "xID": 364, "Region": "Antarctic", "Tally": 361, "LakeNum": "Antarctic361", "Name": "Wlikes2", "Lat": -68.703, "Lon": 121.566 }, "geometry": { "type": "Point", "coordinates": [ 121.566, -68.703 ] } },
{ "type": "Feature", "properties": { "xID": 365, "Region": "Antarctic", "Tally": 365, "LakeNum": "Antarctic365", "Name": null, "Lat": -82.0, "Lon": 11.65 }, "geometry": { "type": "Point", "coordinates": [ 11.65, -82.0 ] } },
{ "type": "Feature", "properties": { "xID": 366, "Region": "Antarctic", "Tally": 366, "LakeNum": "Antarctic366", "Name": "R03Wa_1", "Lat": -70.433, "Lon": 130.399 }, "geometry": { "type": "Point", "coordinates": [ 130.399, -70.433 ] } },
{ "type": "Feature", "properties": { "xID": 367, "Region": "Antarctic", "Tally": 367, "LakeNum": "Antarctic367", "Name": "R04Ea_9", "Lat": -71.621, "Lon": 135.005 }, "geometry": { "type": "Point", "coordinates": [ 135.005, -71.621 ] } },
{ "type": "Feature", "properties": { "xID": 368, "Region": "Antarctic", "Tally": 368, "LakeNum": "Antarctic368", "Name": "R05Ea_4", "Lat": -71.666, "Lon": 128.119 }, "geometry": { "type": "Point", "coordinates": [ 128.119, -71.666 ] } },
{ "type": "Feature", "properties": { "xID": 369, "Region": "Antarctic", "Tally": 369, "LakeNum": "Antarctic369", "Name": "R05Ea_5", "Lat": -71.843, "Lon": 129.055 }, "geometry": { "type": "Point", "coordinates": [ 129.055, -71.843 ] } },
{ "type": "Feature", "properties": { "xID": 370, "Region": "Antarctic", "Tally": 370, "LakeNum": "Antarctic370", "Name": "R06Wa_4", "Lat": -72.884, "Lon": 127.041 }, "geometry": { "type": "Point", "coordinates": [ 127.041, -72.884 ] } },
{ "type": "Feature", "properties": { "xID": 371, "Region": "Antarctic", "Tally": 371, "LakeNum": "Antarctic371", "Name": "R07Ea_9", "Lat": -73.438, "Lon": 126.023 }, "geometry": { "type": "Point", "coordinates": [ 126.023, -73.438 ] } },
{ "type": "Feature", "properties": { "xID": 372, "Region": "Antarctic", "Tally": 372, "LakeNum": "Antarctic372", "Name": "R07Ta_1", "Lat": -73.814, "Lon": 125.655 }, "geometry": { "type": "Point", "coordinates": [ 125.655, -73.814 ] } },
{ "type": "Feature", "properties": { "xID": 373, "Region": "Antarctic", "Tally": 373, "LakeNum": "Antarctic373", "Name": "R08Wa_0.1", "Lat": -74.291, "Lon": 122.585 }, "geometry": { "type": "Point", "coordinates": [ 122.585, -74.291 ] } },
{ "type": "Feature", "properties": { "xID": 374, "Region": "Antarctic", "Tally": 374, "LakeNum": "Antarctic374", "Name": "R08Wa_0.2", "Lat": -74.3, "Lon": 122.503 }, "geometry": { "type": "Point", "coordinates": [ 122.503, -74.3 ] } },
{ "type": "Feature", "properties": { "xID": 375, "Region": "Antarctic", "Tally": 375, "LakeNum": "Antarctic375", "Name": "R13Ea_8", "Lat": -75.981, "Lon": 106.045 }, "geometry": { "type": "Point", "coordinates": [ 106.045, -75.981 ] } },
{ "type": "Feature", "properties": { "xID": 376, "Region": "Antarctic", "Tally": 376, "LakeNum": "Antarctic376", "Name": "R15Ea_4", "Lat": -74.084, "Lon": 100.818 }, "geometry": { "type": "Point", "coordinates": [ 100.818, -74.084 ] } },
{ "type": "Feature", "properties": { "xID": 377, "Region": "Antarctic", "Tally": 377, "LakeNum": "Antarctic377", "Name": "ÊSite AË", "Lat": -67.8, "Lon": 112.54 }, "geometry": { "type": "Point", "coordinates": [ 112.54, -67.8 ] } },
{ "type": "Feature", "properties": { "xID": 378, "Region": "Antarctic", "Tally": 378, "LakeNum": "Antarctic378", "Name": "ÊSite BË", "Lat": -67.87, "Lon": 113.53 }, "geometry": { "type": "Point", "coordinates": [ 113.53, -67.87 ] } },
{ "type": "Feature", "properties": { "xID": 379, "Region": "Antarctic", "Tally": 379, "LakeNum": "Antarctic379", "Name": "ÊSite CË", "Lat": -67.84, "Lon": 114.04 }, "geometry": { "type": "Point", "coordinates": [ 114.04, -67.84 ] } }
]
}
